"ID","Name","Experiences.Offered","Host.Since","Host.Response.Time","Host.Response.Rate","City","Latitude","Longitude","Property.Type","Room.Type","Accommodates","Bathrooms","Bedrooms","Beds","Bed.Type","Amenities","Price","Security.Deposit","Cleaning.Fee","Minimum.Nights","Number.of.Reviews","Review.Scores.Rating","Review.Scores.Accuracy","Review.Scores.Cleanliness","Review.Scores.Checkin","Review.Scores.Communication","Review.Scores.Location","Review.Scores.Value","Cancellation.Policy","Features"
10103806,"Amazing flat at Passage Ideal","none","2015-06-20","",NA,"Berlin",52.4805421073558,13.4358354870922,"Apartment","Entire home/apt",3,1,1,2,"Real Bed","Internet,Air conditioning,Kitchen,Hot tub,Heating,Washer,Essentials",45,NA,NA,1,0,NA,NA,NA,NA,NA,NA,NA,"flexible","Host Has Profile Pic"
16187267,"Spacious Loft (73m²) with Large Roof Terrace","none","2012-08-26","within an hour",100,"Berlin",52.4799510865886,13.4393480911582,"Apartment","Entire home/apt",2,1,1,1,"Real Bed","Wireless Internet,Kitchen,Elevator in building,Buzzer/wireless intercom,Heating,Washer,Essentials,Shampoo,Hair dryer,Laptop friendly workspace,translation missing: en.hosting_amenity_49,translation missing: en.hosting_amenity_50",45,200,20,2,8,100,10,9,9,10,9,9,"moderate","Host Has Profile Pic,Host Identity Verified,Is Location Exact,Require Guest Profile Picture"
16247375,"Room in the heart of Berlin nicest area","none","2013-12-03","",NA,"Berlin",52.4742768305934,13.447508780861,"Apartment","Private room",2,1,1,1,"Real Bed","TV,Wireless Internet,Kitchen,Smoking allowed,Hot tub,Washer,Laptop friendly workspace,translation missing: en.hosting_amenity_49,translation missing: en.hosting_amenity_50",18,NA,NA,6,1,100,10,10,10,6,10,10,"moderate","Host Has Profile Pic,Host Identity Verified,Is Location Exact,Instant Bookable"
412418,"2,5 Room Apartment Neukölln, Berlin","none","2011-12-07","",NA,"Berlin",52.4820830924391,13.447824889,"Apartment","Entire home/apt",5,1,2,4,"Real Bed","TV,Internet,Wireless Internet,Kitchen,Pets allowed,Pets live on this property,Dog(s),Buzzer/wireless intercom,Heating,Family/kid friendly,Washer,Essentials",50,NA,20,2,7,93,10,9,9,10,9,10,"strict","Host Has Profile Pic,Is Location Exact"
6076066,"Vintage apartment in  Neukölln","none","2014-12-01","a few days or more",0,"Berlin",52.471531283346,13.4415726317228,"Apartment","Entire home/apt",2,1,1,1,"Couch","TV,Internet,Wireless Internet,Kitchen,Smoking allowed,Pets allowed,Pets live on this property,Buzzer/wireless intercom,Heating,Washer,Carbon monoxide detector,Essentials,Hair dryer,Iron,Laptop friendly workspace,translation missing: en.hosting_amenity_49",65,NA,15,1,5,100,10,10,10,10,9,9,"moderate","Host Has Profile Pic,Is Location Exact"
10138093,"cosy flat in vibrant Neukölln","none","2015-12-22","",NA,"Berlin",52.4773530333742,13.4396867589414,"Apartment","Entire home/apt",2,1,1,1,"Real Bed","Internet,Wireless Internet,Kitchen,Heating,Washer,Essentials,Hangers,Laptop friendly workspace",40,150,30,1,1,80,10,2,10,10,10,8,"flexible","Host Has Profile Pic,Host Identity Verified,Is Location Exact"
7612609,"helle WG-Zimmer in saniertem Altbau","none","2015-07-29","",NA,"Berlin",52.4779997022578,13.4479217565658,"Apartment","Private room",1,2,1,1,"Real Bed","Internet,Wireless Internet,Kitchen,Buzzer/wireless intercom,Heating,Washer,Essentials",20,NA,NA,1,0,NA,NA,NA,NA,NA,NA,NA,"flexible","Host Has Profile Pic"
6874892,"Cozy Room in Berlin Neukölln","none","2015-06-17","",NA,"Berlin",52.4802682646526,13.4362352395947,"Apartment","Private room",2,1,1,1,"Real Bed","Internet,Wireless Internet,Kitchen,Smoking allowed,Washer",24,NA,NA,1,2,80,10,6,10,10,8,10,"flexible","Host Has Profile Pic,Is Location Exact"
9807731,"Comfy + Hip, Top Location, Neukölln","none","2014-09-01","",NA,"Berlin",52.48247905022,13.4432591856525,"Apartment","Entire home/apt",3,1,2,2,"Real Bed","Internet,Wireless Internet,Kitchen,Heating,Washer,Essentials,Hair dryer,Iron,Laptop friendly workspace",39,NA,NA,1,0,NA,NA,NA,NA,NA,NA,NA,"flexible","Host Has Profile Pic,Host Identity Verified,Is Location Exact"
15000027,"Beautiful Botanic Furnished Room at Neukölln","none","2016-06-14","within an hour",100,"Berlin",52.4782286919934,13.4400353113451,"Apartment","Private room",2,1,1,1,"Real Bed","Wireless Internet,Kitchen,Smoking allowed,Pets allowed,Heating,Family/kid friendly,Washer,Essentials,Shampoo",26,NA,NA,2,22,100,10,10,10,10,10,10,"moderate","Host Is Superhost,Host Has Profile Pic,Is Location Exact,Instant Bookable"
11526049,"Wohnung in Neukölln","none","2016-02-28","",NA,"Berlin",52.4790961975777,13.4463893522608,"Apartment","Entire home/apt",2,1,2,2,"Real Bed","Internet,Wireless Internet,Kitchen,Smoking allowed,Elevator in building,Buzzer/wireless intercom,Heating,Washer,Essentials,Laptop friendly workspace",40,200,NA,14,0,NA,NA,NA,NA,NA,NA,NA,"flexible","Host Has Profile Pic"
17489145,"relaxed, nice and cosy in Neukölln","none","2016-12-02","within a day",100,"Berlin",52.4746826497327,13.448122322206,"Apartment","Private room",2,1,1,1,"Real Bed","Wireless Internet,Kitchen,Washer,Essentials,Lock on bedroom door,Hair dryer,Laptop friendly workspace,translation missing: en.hosting_amenity_49,translation missing: en.hosting_amenity_50",23,300,NA,3,0,NA,NA,NA,NA,NA,NA,NA,"moderate","Host Has Profile Pic,Host Identity Verified,Instant Bookable"
18323163,"Lovely room TWO on the top of Berlin-Neukoelln","none","2016-12-13","within a few hours",100,"Berlin",52.4857416599055,13.4468234610009,"Condominium","Private room",2,1,1,1,"Real Bed","Wireless Internet,Heating,Family/kid friendly,Essentials,Lock on bedroom door,Hangers,Hair dryer,Iron,Laptop friendly workspace",24,250,9,2,1,100,10,10,10,10,10,10,"flexible","Host Has Profile Pic,Is Location Exact"
5546536,"Sweet room to rent in Neukölln","none","2015-03-04","within a day",60,"Berlin",52.4792921264167,13.4469485990849,"Apartment","Private room",1,1,1,2,"Real Bed","Internet,Wireless Internet,Kitchen,Elevator in building,Heating,Washer,Smoke detector,First aid kit,Safety card",25,NA,NA,1,11,98,10,10,10,10,10,10,"flexible","Host Has Profile Pic,Is Location Exact"
13888679,"Berlin DIY - Custom made room in central Neukölln","none","2015-07-23","within an hour",100,"Berlin",52.4789089735579,13.4437256729505,"Apartment","Private room",2,2,1,1,"Real Bed","Wireless Internet,Kitchen,Heating,Family/kid friendly,Washer,Essentials,Hair dryer,Laptop friendly workspace,translation missing: en.hosting_amenity_50",37,NA,NA,2,8,95,10,10,10,10,9,10,"flexible","Host Has Profile Pic,Host Identity Verified,Is Location Exact,Instant Bookable"
17614449,"Lovely, bright, spacious room in Neukölln","none","2016-01-16","within a few hours",100,"Berlin",52.4695123674065,13.4443341506966,"Apartment","Private room",2,1,1,1,"Real Bed","Wireless Internet,Kitchen,Heating,Family/kid friendly,Washer,Essentials,Shampoo,Lock on bedroom door,Hangers",20,NA,10,5,2,100,10,10,10,10,10,10,"flexible","Host Has Profile Pic,Host Identity Verified,Is Location Exact"
13484634,"Clean studio with balcony in Neukölln","none","2012-06-27","within a few hours",100,"Berlin",52.474989086775,13.442170449656,"Apartment","Entire home/apt",2,1,0,1,"Real Bed","Wireless Internet,Kitchen,Breakfast,Heating,Family/kid friendly,Washer,Dryer,Essentials,Shampoo,Hangers,Hair dryer,Iron,Laptop friendly workspace,translation missing: en.hosting_amenity_50",53,100,20,1,11,98,10,9,10,10,9,10,"strict","Host Has Profile Pic,Host Identity Verified"
1491518,"Simple apartment in Neukölln","none","2013-08-06","within a day",60,"Berlin",52.485659841802,13.4474436603569,"Apartment","Private room",1,1,1,1,"Real Bed","TV,Internet,Wireless Internet,Kitchen,Free parking on premises,Heating,Family/kid friendly,Washer,Essentials,Shampoo",25,250,20,2,6,100,10,10,10,10,10,10,"moderate","Host Has Profile Pic,Host Identity Verified"
12632557,"Bright Spacious Room Neukölln Sonnenallee","none","2015-11-24","a few days or more",38,"Berlin",52.4740961432319,13.4526991644771,"Apartment","Private room",2,1,1,1,"Real Bed","TV,Internet,Wireless Internet,Kitchen,Washer,Hangers,Hair dryer,Iron",28,NA,15,2,11,93,10,9,10,9,9,9,"moderate","Host Has Profile Pic,Host Identity Verified,Is Location Exact"
16936257,"Leben in Neukölln","none","2017-01-17","within a day",50,"Berlin",52.4758729930667,13.4519421663673,"Apartment","Entire home/apt",6,1,2,5,"Real Bed","Wireless Internet,Kitchen,Buzzer/wireless intercom,Heating,Family/kid friendly,Washer,Dryer,Smoke detector,Fire extinguisher,Essentials,Hair dryer,Laptop friendly workspace",36,NA,20,5,0,NA,NA,NA,NA,NA,NA,NA,"flexible","Host Has Profile Pic,Host Identity Verified,Is Location Exact"
17725741,"Big, cozy room in Neukölln - Rixdorf","none","2017-03-15","within a day",100,"Berlin",52.4711960617444,13.4511407748207,"Apartment","Private room",3,1,1,1,"Real Bed","TV,Wireless Internet,Kitchen,Smoking allowed,Heating,Washer,Essentials,Hair dryer,Laptop friendly workspace,translation missing: en.hosting_amenity_49,translation missing: en.hosting_amenity_50",26,NA,10,2,0,NA,NA,NA,NA,NA,NA,NA,"moderate","Host Has Profile Pic,Is Location Exact"
17325361,"Großes, gemütliches Zimmer im angesagten Neukölln","none","2017-02-18","within a few hours",100,"Berlin",52.4719686918379,13.4520496433941,"Apartment","Private room",2,1,1,1,"Real Bed","Wireless Internet,Kitchen,Heating,First aid kit,Essentials,Lock on bedroom door,Hair dryer,Iron,Laptop friendly workspace",21,NA,5,1,7,97,10,10,9,9,9,10,"moderate","Host Has Profile Pic"
13454538,"Neuköllns Weserstraße with Kitchen and Bathtub!","none","2016-06-10","within an hour",100,"Berlin",52.4799485913559,13.4499592123401,"Other","Private room",4,1,1,2,"Real Bed","Wireless Internet,Kitchen,Heating,Family/kid friendly,Smoke detector,Essentials,Lock on bedroom door,Hangers,Hair dryer,Laptop friendly workspace,translation missing: en.hosting_amenity_50",39,100,29,2,34,92,9,9,10,10,9,9,"flexible","Host Has Profile Pic,Is Location Exact"
2443420,"Comfortable room in city center","none","2014-02-23","within a day",90,"Berlin",52.4728482104291,13.4550151225442,"Apartment","Private room",1,1,1,2,"Real Bed","Internet,Wireless Internet,Kitchen,Buzzer/wireless intercom,Heating,Washer,Lock on bedroom door,Hangers,Iron,Laptop friendly workspace,translation missing: en.hosting_amenity_50",22,NA,NA,2,10,92,10,9,9,10,9,10,"moderate","Host Has Profile Pic,Is Location Exact"
4737384,"Room in Neuköllm","none","2014-12-03","within a few hours",100,"Berlin",52.4823050442305,13.4433653116282,"Apartment","Private room",2,1,1,1,"Real Bed","Internet,Wireless Internet,Kitchen,Buzzer/wireless intercom,Heating,Family/kid friendly,Washer,Essentials,Hangers,Hair dryer,Iron,Laptop friendly workspace",30,NA,10,3,32,93,10,9,10,10,9,10,"flexible","Host Has Profile Pic,Host Identity Verified,Is Location Exact"
6847957,"Wohnlage Nähe Templhofer-Feld","none","2015-06-15","",NA,"Berlin",52.4654568090746,13.4308256565405,"Apartment","Private room",2,1,1,1,"Real Bed","TV,Wireless Internet,Kitchen,Elevator in building,Washer,translation missing: en.hosting_amenity_49,translation missing: en.hosting_amenity_50",28,300,NA,1,0,NA,NA,NA,NA,NA,NA,NA,"flexible","Host Has Profile Pic"
17792375,"Cozy room with chimney and sunny balcony","none","2016-08-17","within a day",70,"Berlin",52.4694824899261,13.4267682873647,"Apartment","Private room",2,1,1,1,"Real Bed","Wireless Internet,Indoor fireplace,Heating,First aid kit,Essentials",35,100,10,1,0,NA,NA,NA,NA,NA,NA,NA,"moderate","Host Has Profile Pic,Host Identity Verified"
8024174,"sunny artist flat","none","2015-08-24","",NA,"Berlin",52.4741368600191,13.4250241138711,"Apartment","Entire home/apt",2,1,1,2,"Real Bed","Internet,Wireless Internet,Kitchen,Buzzer/wireless intercom,Heating,Family/kid friendly,Washer,Smoke detector,Essentials",35,200,25,1,0,NA,NA,NA,NA,NA,NA,NA,"flexible","Host Has Profile Pic,Is Location Exact"
682853,"1-room flat Neukölln Hermannplatz","none","2012-09-05","",NA,"Berlin",52.4841805622154,13.4220208596736,"Apartment","Entire home/apt",2,1,1,1,"Real Bed","Internet,Wireless Internet,Kitchen,Smoking allowed,Buzzer/wireless intercom,Heating,Washer,Essentials",35,200,25,1,0,NA,NA,NA,NA,NA,NA,NA,"flexible","Host Has Profile Pic,Host Identity Verified"
2583272,"Tolle Wohnung Neukölln","none","2014-03-11","within a day",100,"Berlin",52.4721601251474,13.4244023204288,"Apartment","Entire home/apt",2,1,1,1,"Real Bed","TV,Internet,Wireless Internet,Kitchen,Free parking on premises,Smoking allowed,Pets allowed,Buzzer/wireless intercom,Heating,Family/kid friendly,Washer,Shampoo",52,70,15,3,36,95,10,10,10,10,9,9,"moderate","Host Has Profile Pic,Host Identity Verified,Is Location Exact"
7688581,"A flat in Schillerkiez with 2 cats!","none","2015-08-03","",NA,"Berlin",52.468432074128,13.422209249324,"Apartment","Entire home/apt",2,1,1,1,"Real Bed","Wireless Internet,Kitchen,Free parking on premises,Pets live on this property,Cat(s),Buzzer/wireless intercom,Heating,Washer,Essentials,Shampoo,Hangers,Hair dryer,Iron,Laptop friendly workspace",30,NA,NA,7,3,87,9,7,9,9,9,8,"moderate","Host Has Profile Pic,Is Location Exact"
3034525,"SuperWohnung Nähe Tempelhofer Feld","none","2014-05-13","within a day",100,"Berlin",52.4686436471983,13.4249582623475,"Apartment","Entire home/apt",2,1,1,1,"Real Bed","Internet,Wireless Internet,Kitchen,Buzzer/wireless intercom,Heating,Family/kid friendly,Washer,Essentials,Hangers,Hair dryer,Iron,Laptop friendly workspace",50,100,20,2,30,94,10,10,9,10,9,9,"moderate","Host Has Profile Pic,Is Location Exact"
3623086,"Room in Funky Flat Neukölln","none","2011-04-05","within an hour",100,"Berlin",52.4689902636252,13.4303383110011,"Apartment","Private room",2,1,1,1,"Real Bed","Internet,Wireless Internet,Kitchen,Pets allowed,Heating,Family/kid friendly,Washer",50,NA,20,2,5,88,10,9,10,10,8,8,"strict","Host Has Profile Pic,Host Identity Verified"
8602241,"2 room apartment in Neukölln","none","2013-09-11","",NA,"Berlin",52.465375796865,13.4322825997729,"Apartment","Entire home/apt",4,1,2,2,"Real Bed","TV,Cable TV,Internet,Wireless Internet,Kitchen,Buzzer/wireless intercom,Heating,Washer",50,200,NA,1,1,80,10,8,10,10,8,8,"moderate","Host Has Profile Pic,Is Location Exact"
6307526,"Sun, balcony, Tempelhof Field","none","2012-12-08","",NA,"Berlin",52.4708806705927,13.4291914512738,"Apartment","Private room",2,1,1,1,"Real Bed","Internet,Wireless Internet,Kitchen,Buzzer/wireless intercom,Heating,Washer,Smoke detector,First aid kit,Safety card,Essentials,Shampoo,Lock on bedroom door,Hangers,Hair dryer,Iron,Laptop friendly workspace",25,100,8,2,5,100,10,10,10,10,9,10,"moderate","Host Has Profile Pic,Host Identity Verified,Is Location Exact"
13909255,"Sehr schöne Wohnung im Szenebezirk Neukölln","none","2013-05-02","",NA,"Berlin",52.4745680211024,13.4268114133123,"Apartment","Entire home/apt",2,1,1,1,"Real Bed","TV,Internet,Wireless Internet,Kitchen,Elevator in building,Heating,Washer,Essentials,Hangers,Hair dryer,Iron,Laptop friendly workspace,translation missing: en.hosting_amenity_49,translation missing: en.hosting_amenity_50",70,500,30,2,2,90,10,10,9,10,10,9,"flexible","Host Has Profile Pic"
1324011,"Lovely room in Berlin Neukölln","none","2013-06-25","within a few hours",100,"Berlin",52.4729553228004,13.4266171881852,"Apartment","Private room",2,1,1,1,"Real Bed","Internet,Wireless Internet,Kitchen,Smoking allowed,Heating,Washer",35,NA,NA,1,0,NA,NA,NA,NA,NA,NA,NA,"flexible","Host Has Profile Pic,Is Location Exact"
6367904,"ruhige, helle Wohnung im Grünen","none","2013-09-17","",NA,"Berlin",52.4647988479244,13.4301842670352,"Apartment","Entire home/apt",4,1,2,4,"Real Bed","TV,Internet,Wireless Internet,Kitchen,Heating,Family/kid friendly,Washer,Smoke detector,First aid kit,Fire extinguisher,Essentials,Shampoo",55,600,35,5,1,100,10,10,10,10,8,10,"strict","Host Has Profile Pic,Host Identity Verified,Is Location Exact"
15761974,"♥ Loveley,  cozy and calm room in Neukölln ♥","none","2015-05-11","within an hour",100,"Berlin",52.4785867583537,13.422016152161,"Apartment","Private room",2,1,1,1,"Futon","Wireless Internet,Kitchen,Smoking allowed,Heating,Family/kid friendly,Washer,Essentials,Shampoo,Hair dryer,Iron,Laptop friendly workspace",32,NA,10,1,21,96,9,10,10,10,10,9,"moderate","Host Is Superhost,Host Has Profile Pic"
6491142,"spacious, sunny 130 sqm penthouse","none","2015-03-24","within a day",100,"Berlin",52.4763326484203,13.4247870277942,"Apartment","Entire home/apt",5,1.5,2,2,"Real Bed","TV,Cable TV,Internet,Wireless Internet,Kitchen,Free parking on premises,Elevator in building,Buzzer/wireless intercom,Heating,Family/kid friendly,Washer,Smoke detector,Essentials,Shampoo",129,100,30,4,6,100,9,10,10,10,10,10,"moderate","Host Has Profile Pic,Host Identity Verified"
18442152,"sun-soaked and peaceful 20m² room in south-berlin","none","2017-04-27","",NA,"Berlin",52.4413091537571,13.4017241626157,"Condominium","Private room",2,1.5,1,1,"Real Bed","TV,Internet,Wireless Internet,Kitchen,Free parking on premises,Buzzer/wireless intercom,Heating,Washer,Dryer,Smoke detector,First aid kit,Safety card,Fire extinguisher,Essentials,Shampoo,Lock on bedroom door,Hangers,Hair dryer,Iron,Laptop friendly workspace,translation missing: en.hosting_amenity_49,translation missing: en.hosting_amenity_50",35,NA,10,2,0,NA,NA,NA,NA,NA,NA,NA,"flexible","Host Has Profile Pic,Is Location Exact"
18031253,"35 m² lovely appartment with balcony","none","2017-04-03","",NA,"Berlin",52.4456344195312,13.3687027712276,"Condominium","Entire home/apt",2,1,1,1,"Real Bed","Wireless Internet,Kitchen,Heating,Family/kid friendly,Washer,Safety card,Essentials,Shampoo,Lock on bedroom door,Hangers,Hair dryer,Iron,Laptop friendly workspace,translation missing: en.hosting_amenity_50,Private entrance",45,NA,20,1,0,NA,NA,NA,NA,NA,NA,NA,"flexible","Host Has Profile Pic,Is Location Exact,Instant Bookable"
11315246,"Im Süden von Berlin - close to subway U7","none","2016-02-17","within an hour",89,"Berlin",52.4256709603209,13.4922815750067,"House","Private room",2,1,1,1,"Real Bed","Internet,Wireless Internet,Pool,Kitchen,Smoking allowed,Pets allowed,Breakfast,Pets live on this property,Dog(s),Indoor fireplace,Buzzer/wireless intercom,Heating,Washer,Dryer,Smoke detector,First aid kit,Fire extinguisher,Essentials,Shampoo,Lock on bedroom door,24-hour check-in,Hangers,Hair dryer,Iron,Laptop friendly workspace,translation missing: en.hosting_amenity_49,translation missing: en.hosting_amenity_50,Private entrance",32,NA,12,2,29,96,10,10,10,10,10,10,"moderate","Host Has Profile Pic,Is Location Exact,Instant Bookable"
1614414,"Apartment with easy connections.","none","2011-08-01","within a day",80,"Berlin",52.4367267520219,13.5517290279177,"Apartment","Entire home/apt",2,1,0,1,"Pull-out Sofa","Free parking on premises,Buzzer/wireless intercom,Heating,Washer,Dryer",45,300,30,60,0,NA,NA,NA,NA,NA,NA,NA,"strict","Host Has Profile Pic,Host Identity Verified"
1083136,"Szoba egy szemelynek kiado.","none","2013-04-16","",NA,"Berlin",52.5266858794041,13.5862043462289,"Loft","Private room",1,NA,1,NA,"Real Bed","",77,NA,NA,1,0,NA,NA,NA,NA,NA,NA,NA,"flexible","Host Has Profile Pic,Is Location Exact"
18427505,"Gemütliche Wohnung zentral","none","2016-07-18","a few days or more",20,"Berlin",52.5628905534194,13.3698535924887,"Apartment","Entire home/apt",4,1,2,3,"Real Bed","TV,Internet,Wireless Internet,Kitchen,Heating,Family/kid friendly,Fire extinguisher",55,NA,NA,1,0,NA,NA,NA,NA,NA,NA,NA,"flexible","Host Has Profile Pic"
6653736,"Apartment in vivid Kreuzberg","none","2015-06-02","",NA,"Berlin",52.4897672846964,13.4044705199268,"Apartment","Entire home/apt",2,1,1,1,"Real Bed","Internet,Wireless Internet,Wheelchair accessible,Kitchen,Free parking on premises,Heating,Family/kid friendly,Washer,Smoke detector,Carbon monoxide detector,Essentials",59,NA,19,3,4,87,10,10,10,9,9,9,"moderate","Host Has Profile Pic,Host Identity Verified"
1014824,"Top location - Sweet Kreuzberg 61","none","2013-03-23","within an hour",100,"Berlin",52.4899091772015,13.3927841319305,"Apartment","Entire home/apt",4,2,2,2,"Real Bed","TV,Cable TV,Internet,Wireless Internet,Kitchen,Buzzer/wireless intercom,Heating,Family/kid friendly,Washer,Hair dryer,Iron",95,NA,40,3,4,100,10,10,9,10,9,10,"moderate","Host Has Profile Pic,Host Identity Verified,Is Location Exact,Instant Bookable"
593920,"1,5 rooms in wonderful Kreuzberg","none","2012-07-14","",NA,"Berlin",52.495167501841,13.4012153102561,"Apartment","Entire home/apt",3,1,1,2,"Real Bed","Internet,Wireless Internet,Kitchen,Free parking on premises,Buzzer/wireless intercom,Heating,Family/kid friendly,Washer,Shampoo,Hangers,Hair dryer,Iron,Laptop friendly workspace,translation missing: en.hosting_amenity_50",35,100,15,6,4,100,10,10,9,10,10,10,"moderate","Host Has Profile Pic,Host Identity Verified,Is Location Exact"
5199916,"charmante Wohnung in Kreuzberg","none","2013-12-25","",NA,"Berlin",52.4877467289202,13.3762895567433,"Apartment","Entire home/apt",1,1,1,1,"Real Bed","TV,Internet,Wireless Internet,Kitchen,Heating,Washer,Essentials",37,500,NA,10,0,NA,NA,NA,NA,NA,NA,NA,"strict","Host Has Profile Pic"
4407058,"Beautiful room in Kreuzberg","none","2014-03-08","",NA,"Berlin",52.4914855632617,13.4171068747802,"Apartment","Private room",1,1,1,1,"Real Bed","Wireless Internet,Kitchen,Heating",19,NA,5,3,3,87,9,9,9,9,9,9,"flexible","Host Has Profile Pic,Is Location Exact"
14630491,"Modern Room in x_berg","none","2016-08-19","",NA,"Berlin",52.495425240192,13.4003704443376,"Apartment","Private room",2,1,1,1,"Real Bed","TV,Wireless Internet,Kitchen,Heating,Washer,Essentials,Hangers,Hair dryer,Laptop friendly workspace,translation missing: en.hosting_amenity_49,translation missing: en.hosting_amenity_50",30,700,NA,1,3,90,10,9,9,10,9,10,"moderate","Host Has Profile Pic,Is Location Exact"
11352279,"charming apartment in the heart of Kreuzberg","none","2015-02-22","within a few hours",100,"Berlin",52.49574695889,13.3995591887079,"Apartment","Entire home/apt",2,1,1,1,"Real Bed","Wireless Internet,Kitchen,Heating,Washer,Essentials,Hair dryer,Laptop friendly workspace,translation missing: en.hosting_amenity_49,translation missing: en.hosting_amenity_50,Bathtub",47,NA,NA,5,1,100,10,10,10,10,10,10,"flexible","Host Has Profile Pic,Is Location Exact"
4144081,"Sonniges Dachzimmer in Kreuzberg","none","2012-05-23","",NA,"Berlin",52.4906452465087,13.3901097219433,"Apartment","Private room",1,1,1,1,"Real Bed","Wireless Internet,Kitchen,Buzzer/wireless intercom,Heating,Family/kid friendly,Washer,First aid kit,Fire extinguisher,Essentials,Shampoo,Hangers,Hair dryer,Iron,Laptop friendly workspace",36,450,30,20,2,100,10,9,10,10,10,10,"strict","Host Has Profile Pic,Is Location Exact"
6566904,"Ruhige Ferienwohnung in Kreuzberg","none","2015-05-27","within an hour",100,"Berlin",52.4926999618777,13.3883536265058,"Apartment","Entire home/apt",6,1,2,6,"Real Bed","TV,Cable TV,Internet,Wireless Internet,Kitchen,Smoking allowed,Pets allowed,Buzzer/wireless intercom,Heating,Family/kid friendly,Washer,Essentials,Hangers,Hair dryer,Iron,Laptop friendly workspace",70,NA,30,2,54,92,9,9,10,10,10,9,"moderate","Host Has Profile Pic,Is Location Exact,Instant Bookable"
11083314,"Spacious room in lovely flatshare","none","2016-02-05","",NA,"Berlin",52.4984160524048,13.3849778999742,"Apartment","Private room",1,1,1,1,"Real Bed","Internet,Wireless Internet,Kitchen,Buzzer/wireless intercom,Heating,Washer,Essentials,Hangers,Hair dryer,Iron",17,NA,NA,6,0,NA,NA,NA,NA,NA,NA,NA,"flexible","Host Has Profile Pic,Host Identity Verified,Is Location Exact"
12194943,"Cozy & good location in Kreuzkölln","none","2011-07-07","within a day",70,"Berlin",52.491565244163,13.4208456613766,"Apartment","Entire home/apt",2,1,1,1,"Real Bed","Internet,Wireless Internet,Kitchen,Heating,Family/kid friendly,Essentials,Hair dryer,Laptop friendly workspace",55,NA,20,4,7,89,10,9,10,9,10,10,"moderate","Host Has Profile Pic,Host Identity Verified,Is Location Exact"
4415585,"Small Room in Kreuzberg","none","2014-10-24","",NA,"Berlin",52.4960569662795,13.4345736487764,"Apartment","Private room",1,1,1,1,"Real Bed","",20,NA,NA,1,0,NA,NA,NA,NA,NA,NA,NA,"flexible","Host Has Profile Pic,Host Identity Verified,Is Location Exact"
14820520,"Double room with balcony in a big flat (Kreuzberg)","none","2015-06-04","",NA,"Berlin",52.4965125760525,13.420860388681,"Other","Private room",2,1.5,1,1,"Real Bed","Wireless Internet,Kitchen,Smoking allowed,Elevator in building,Heating,Washer,First aid kit,Essentials,Shampoo,Lock on bedroom door,Hangers,Hair dryer,Laptop friendly workspace,translation missing: en.hosting_amenity_49,translation missing: en.hosting_amenity_50",45,NA,NA,3,2,100,10,10,10,10,10,10,"flexible","Host Has Profile Pic,Host Identity Verified,Instant Bookable"
218524,"Charming Apartment, 85sqm, 3 rms","none","2011-09-08","within a few hours",100,"Berlin",52.4937100676497,13.4363708072586,"Apartment","Entire home/apt",3,1,1,3,"Real Bed","Internet,Wireless Internet,Kitchen,Pets allowed,Buzzer/wireless intercom,Heating,Family/kid friendly,Washer,Dryer,Essentials",84,500,20,5,9,96,10,10,9,10,9,10,"moderate","Host Has Profile Pic,Host Identity Verified,Is Location Exact"
17085587,"Elegant two bedroom apartment","none","2016-10-04","within a day",97,"Berlin",52.4930701995058,13.4373132470478,"Apartment","Entire home/apt",4,1,2,2,"Real Bed","TV,Wireless Internet,Kitchen,Elevator in building,Heating,Family/kid friendly,Smoke detector,Essentials,Shampoo,Hair dryer",140,300,0,3,0,NA,NA,NA,NA,NA,NA,NA,"flexible","Host Has Profile Pic,Host Identity Verified,Is Location Exact"
17969678,"Sunny studio downtown Berlin Kreuzberg","none","2014-09-19","within an hour",100,"Berlin",52.4942210881041,13.4379627422078,"Apartment","Entire home/apt",2,1,0,1,"Real Bed","Internet,Wireless Internet,Kitchen,Heating,Family/kid friendly,Washer,Essentials,Shampoo,Hair dryer,Iron,Laptop friendly workspace",100,NA,20,2,1,100,10,10,10,10,10,8,"flexible","Host Has Profile Pic,Host Identity Verified,Instant Bookable"
16523529,"A unique Oasis in Berlin","none","2011-03-05","within an hour",100,"Berlin",52.4954344170305,13.4295655697357,"Apartment","Private room",2,1,1,1,"Real Bed","TV,Internet,Wireless Internet,Kitchen,Free parking on premises,Pets allowed,Pets live on this property,Dog(s),Hot tub,Buzzer/wireless intercom,Heating,Family/kid friendly,First aid kit,Fire extinguisher,Essentials,Shampoo,Lock on bedroom door,Hair dryer,Iron,Laptop friendly workspace,Private entrance",35,NA,25,1,19,99,10,10,10,10,10,10,"flexible","Host Is Superhost,Host Has Profile Pic,Host Identity Verified,Instant Bookable"
10033158,"26m² room in heart of Kreuzberg","none","2015-12-16","",NA,"Berlin",52.4944313203654,13.4312036363049,"Apartment","Private room",2,1,1,1,"Couch","Wireless Internet,Kitchen,Smoking allowed,Heating,Family/kid friendly,Washer,Essentials",32,250,NA,1,2,90,9,8,10,10,9,8,"flexible","Host Has Profile Pic"
16979933,"Stylishe Wohnung am Görli","none","2015-02-28","within a few hours",100,"Berlin",52.4964581567398,13.4387530353383,"Apartment","Private room",2,1,1,1,"Real Bed","TV,Kitchen,Breakfast,Heating,Family/kid friendly,Washer,Dryer,Essentials,Hangers,Hair dryer,Iron",80,NA,NA,3,0,NA,NA,NA,NA,NA,NA,NA,"flexible","Host Has Profile Pic,Host Identity Verified,Is Location Exact"
3868587,"Big Sofa in livingroom in Kreuzberg","none","2014-08-13","",NA,"Berlin",52.498797149705,13.4407923651939,"Apartment","Private room",1,1,1,1,"Real Bed","TV,Internet,Wireless Internet,Kitchen,Smoking allowed,Pets allowed,Pets live on this property,Cat(s),Hot tub,Heating,Suitable for events,Washer,Smoke detector,First aid kit,Essentials",39,NA,NA,10,0,NA,NA,NA,NA,NA,NA,NA,"flexible","Host Has Profile Pic,Is Location Exact"
7472677,"Loft Studio XBerg - View over City","none","2015-07-21","within a few hours",100,"Berlin",52.4975362265649,13.4238652978371,"Loft","Entire home/apt",2,1,0,1,"Real Bed","Wireless Internet,Kitchen,Heating,Washer,Fire extinguisher,Essentials,translation missing: en.hosting_amenity_49",82,150,50,3,4,100,10,10,10,10,10,10,"strict","Host Has Profile Pic,Host Identity Verified,Is Location Exact"
10727312,"2-Raumwohnug in Bln Friedrichshain!","none","2016-01-20","",NA,"Berlin",52.5174195494901,13.4459202353209,"Apartment","Entire home/apt",2,1,1,1,"Real Bed","TV,Internet,Wireless Internet,Kitchen,Buzzer/wireless intercom,Heating,Family/kid friendly,Washer,Essentials,Hangers,Iron,Laptop friendly workspace",70,650,NA,2,1,100,10,10,10,10,8,10,"moderate","Host Has Profile Pic,Host Identity Verified"
6103503,"Schöne helle Wohnung mit Garten","none","2015-04-21","",NA,"Berlin",52.5225064555467,13.4454826234192,"Apartment","Entire home/apt",2,1,1,1,"Real Bed","TV,Internet,Wireless Internet,Kitchen,Pets live on this property,Other pet(s),Elevator in building,Buzzer/wireless intercom,Heating,Family/kid friendly,Smoke detector,Carbon monoxide detector,First aid kit,Safety card,Essentials,Shampoo",80,NA,50,7,0,NA,NA,NA,NA,NA,NA,NA,"strict","Host Has Profile Pic,Is Location Exact"
2750479,"Charming Room in the Center + Extra","none","2013-10-02","within a day",90,"Berlin",52.5213906391555,13.447787480187,"Apartment","Private room",1,1,1,1,"Real Bed","Internet,Wireless Internet,Kitchen,Free parking on premises,Buzzer/wireless intercom,Heating,Family/kid friendly,Washer,Smoke detector,Essentials,Shampoo,Hangers,Hair dryer,Iron,Laptop friendly workspace",20,NA,10,3,32,93,10,9,9,10,10,9,"moderate","Host Has Profile Pic,Host Identity Verified,Is Location Exact"
7644934,"Altbau-Juwel auf 140 qm, familienfreundlich, ruhig","none","2015-07-31","within a few hours",100,"Berlin",52.5195437912946,13.4495543197327,"Apartment","Entire home/apt",5,2,3,3,"Real Bed","TV,Cable TV,Internet,Wireless Internet,Kitchen,Free parking on premises,Buzzer/wireless intercom,Heating,Family/kid friendly,Washer,Essentials",100,NA,50,4,3,100,10,10,10,10,10,10,"strict","Host Has Profile Pic,Host Identity Verified,Is Location Exact"
11970605,"Design Apartment in Friedrichshain","none","2016-03-21","within an hour",100,"Berlin",52.524084962952,13.4463433405756,"Condominium","Entire home/apt",2,1,0,1,"Pull-out Sofa","TV,Cable TV,Internet,Wireless Internet,Kitchen,Buzzer/wireless intercom,Heating,Family/kid friendly,Washer,Smoke detector,Carbon monoxide detector,Essentials,Shampoo,24-hour check-in,Hangers,Hair dryer,Iron,Laptop friendly workspace",79,NA,35,3,48,96,10,10,10,10,10,10,"flexible","Host Has Profile Pic,Instant Bookable"
10851277,"PANORAMA Cabinet Berlin +LOCATION +PARKING +BIKES","none","2016-01-26","within an hour",100,"Berlin",52.525113948736,13.4474529522396,"Apartment","Private room",3,1,1,2,"Real Bed","Internet,Wireless Internet,Kitchen,Free parking on premises,Breakfast,Elevator in building,Buzzer/wireless intercom,Heating,Family/kid friendly,Washer,Dryer,First aid kit,Essentials,Shampoo,Lock on bedroom door,24-hour check-in,Hangers,Hair dryer,Iron,Laptop friendly workspace,translation missing: en.hosting_amenity_50,Self Check-In,Lockbox",25,NA,20,2,42,89,9,9,9,9,9,9,"strict","Host Has Profile Pic,Host Identity Verified"
11300710,"♕ Spacious Room in Prime Location♛","none","2012-10-15","",NA,"Berlin",52.5178014246511,13.444287191589,"Apartment","Private room",2,1,1,1,"Real Bed","Internet,Wireless Internet,Kitchen,Buzzer/wireless intercom,Heating,Family/kid friendly,Hangers,Laptop friendly workspace,translation missing: en.hosting_amenity_50",45,NA,25,6,3,100,10,10,10,10,9,10,"moderate","Host Has Profile Pic,Host Identity Verified"
15350759,"Schöne gemütliche Wohnung in Friedrichshain","none","2016-10-04","within an hour",100,"Berlin",52.5199982927971,13.4392186450906,"Apartment","Private room",2,1,1,1,"Real Bed","TV,Cable TV,Internet,Wireless Internet,Kitchen,Free parking on premises,Elevator in building,Heating,Family/kid friendly,Washer,Essentials,Shampoo,Hangers,Hair dryer,translation missing: en.hosting_amenity_50",30,NA,10,1,15,97,10,10,10,10,9,10,"flexible","Host Has Profile Pic,Host Identity Verified"
16026081,"Private room in the heart of Berlin","none","2015-08-15","within an hour",100,"Berlin",52.5237448937365,13.4372132887223,"Apartment","Private room",1,1,1,1,"Real Bed","TV,Wireless Internet,Kitchen,Smoking allowed,Elevator in building,Heating,Washer,Essentials,Shampoo,Lock on bedroom door,Hangers,Iron,Laptop friendly workspace,translation missing: en.hosting_amenity_49,translation missing: en.hosting_amenity_50",28,NA,NA,3,3,93,10,9,10,10,10,9,"flexible","Host Has Profile Pic,Host Identity Verified,Is Location Exact,Instant Bookable"
7537880,"Cosy flat, Citycenter, Volkspark","none","2011-08-28","",NA,"Berlin",52.5243597105104,13.431625285377,"Apartment","Entire home/apt",2,1,1,1,"Real Bed","TV,Wireless Internet,Kitchen,Pets allowed,Doorman,Elevator in building,Heating,Family/kid friendly,Washer,Essentials",40,NA,NA,1,1,100,10,10,10,10,10,10,"flexible","Host Has Profile Pic,Is Location Exact"
14758161,"Gästehaus im Park in Berlin-Pankow","none","2016-08-26","within a few hours",100,"Berlin",52.6099734029901,13.4445798525278,"House","Entire home/apt",5,2,3,3,"Real Bed","TV,Cable TV,Internet,Wireless Internet,Kitchen,Free parking on premises,Indoor fireplace,Buzzer/wireless intercom,Heating,Family/kid friendly,Washer,Dryer,Smoke detector,Carbon monoxide detector,Essentials,Lock on bedroom door,Hangers,Hair dryer,Iron,Laptop friendly workspace,Private living room,Private entrance",107,NA,60,2,1,100,10,10,10,10,10,10,"strict","Host Has Profile Pic,Is Location Exact"
10225181,"House w/ GARDEN 15m. from centre","none","2015-12-28","within a few hours",100,"Berlin",52.5565311777343,13.4658826671666,"House","Entire home/apt",10,2,3,6,"Real Bed","Wireless Internet,Kitchen,Free parking on premises,Smoking allowed,Pets allowed,Breakfast,Heating,Family/kid friendly,Washer,Essentials,Shampoo",89,NA,25,2,27,96,10,9,10,10,9,10,"moderate","Host Has Profile Pic,Host Identity Verified"
11593493,"White lake walk through room comfy sofa bedroom","none","2015-07-06","within a few hours",100,"Berlin",52.5562711416576,13.4302732654059,"Dorm","Shared room",1,1,1,1,"Pull-out Sofa","TV,Cable TV,Internet,Wireless Internet,Kitchen,Pets allowed,Heating,Washer,Essentials,Shampoo,Hangers,Hair dryer,Iron,Laptop friendly workspace",23,500,15,2,0,NA,NA,NA,NA,NA,NA,NA,"strict","Host Is Superhost,Host Has Profile Pic,Host Identity Verified"
15391381,"+++Penthouse nähe Prenzlauer Berg (Weissensee)+++","none","2016-10-06","within an hour",100,"Berlin",52.5555237105758,13.4369272015518,"Loft","Entire home/apt",3,1,1,1,"Real Bed","TV,Wireless Internet,Kitchen,Indoor fireplace,Family/kid friendly,Washer,First aid kit,Fire extinguisher,Essentials,Lock on bedroom door,Laptop friendly workspace",59,NA,15,3,23,88,9,9,10,10,9,9,"strict","Host Has Profile Pic,Instant Bookable"
6029108,"Private Room in Kreuzberg NICE AREA","none","2014-08-29","",NA,"Berlin",52.4901880815755,13.4023790966764,"Apartment","Private room",1,1,1,1,"Real Bed","Internet,Wireless Internet,Kitchen,Heating,Washer,Shampoo,Hair dryer,Iron,Laptop friendly workspace,translation missing: en.hosting_amenity_49,translation missing: en.hosting_amenity_50",49,NA,NA,1,0,NA,NA,NA,NA,NA,NA,NA,"flexible","Host Has Profile Pic,Host Identity Verified"
15891764,"Ruhige, helle Wohnung mitten in Kreuzberg","none","2016-11-09","",NA,"Berlin",52.4921434948686,13.4100477204288,"Apartment","Entire home/apt",1,1,1,1,"Real Bed","Kitchen,Heating,Essentials,Shampoo,Hangers,Laptop friendly workspace,translation missing: en.hosting_amenity_49,translation missing: en.hosting_amenity_50",45,NA,10,3,2,100,10,10,10,9,10,10,"flexible","Host Has Profile Pic,Is Location Exact"
18004174,"Sonniges Zimmer mit Panoramablick","none","2017-04-01","within an hour",100,"Berlin",52.4935979305098,13.4030946118959,"Apartment","Private room",1,1,1,1,"Real Bed","Wireless Internet,Kitchen,Smoking allowed,Heating,Washer,Safety card,Essentials,Hangers,Laptop friendly workspace,translation missing: en.hosting_amenity_49,translation missing: en.hosting_amenity_50",25,NA,NA,2,3,100,9,10,10,10,10,10,"flexible","Host Has Profile Pic,Is Location Exact"
1372560,"Bright 1-br Kreuzberg apt near canal, cafés, etc.","none","2013-07-12","within a day",100,"Berlin",52.4938683247887,13.4031300286758,"Apartment","Entire home/apt",2,1,1,1,"Real Bed","Internet,Wireless Internet,Kitchen,Buzzer/wireless intercom,Heating,Washer,Essentials,Hangers,Hair dryer,Laptop friendly workspace,translation missing: en.hosting_amenity_49,translation missing: en.hosting_amenity_50",85,NA,40,7,9,88,9,10,9,8,9,9,"moderate","Host Has Profile Pic,Host Identity Verified,Is Location Exact"
10794138,"Perfect Located Apartment","none","2014-10-10","within a few hours",100,"Berlin",52.4862170756926,13.3811426896131,"Apartment","Entire home/apt",1,1,0,1,"Real Bed","TV,Cable TV,Internet,Wireless Internet,Kitchen,Buzzer/wireless intercom,Heating,Washer,Smoke detector,Essentials,Shampoo,Hair dryer,Laptop friendly workspace,translation missing: en.hosting_amenity_49,translation missing: en.hosting_amenity_50,Bathtub",24,300,30,14,0,NA,NA,NA,NA,NA,NA,NA,"strict","Host Has Profile Pic,Host Identity Verified,Is Location Exact"
16954420,"Lovely apartment in famous Kreuzberg*! Central B!","none","2017-01-26","within an hour",85,"Berlin",52.4907190691922,13.3950687986173,"Apartment","Entire home/apt",2,1,1,1,"Real Bed","Wireless Internet,Kitchen,Free parking on premises,Heating,Smoke detector,Essentials,Shampoo,24-hour check-in,Hangers,Laptop friendly workspace",69,200,30,1,5,96,9,9,10,10,10,9,"strict","Host Has Profile Pic,Instant Bookable"
2093005,"Nice and quite flat in the city","none","2012-10-03","within a day",60,"Berlin",52.4897478542928,13.4033886652066,"Apartment","Entire home/apt",4,1,2,2,"Real Bed","Internet,Wireless Internet,Kitchen,Heating,Family/kid friendly,Washer",80,NA,80,1,9,89,9,8,10,9,10,9,"flexible","Host Has Profile Pic,Host Identity Verified,Is Location Exact"
11268364,"","none","2015-10-20","",NA,"Berlin",52.4890620468216,13.3951471208658,"Apartment","Private room",2,1.5,1,1,"Real Bed","Wireless Internet,Kitchen,Heating,Washer,Essentials,Laptop friendly workspace,translation missing: en.hosting_amenity_49,translation missing: en.hosting_amenity_50",28,100,NA,3,1,100,10,10,10,10,10,10,"flexible","Host Has Profile Pic,Is Location Exact"
4908229,"Quiet, large luxury flat in X-berg","none","2014-12-27","",NA,"Berlin",52.4926714435188,13.4092922775983,"Apartment","Entire home/apt",3,2,2,2,"Real Bed","Wireless Internet,Wheelchair accessible,Kitchen,Free parking on premises,Elevator in building,Hot tub,Buzzer/wireless intercom,Heating,Family/kid friendly,Washer,Dryer,Essentials",67,600,85,14,0,NA,NA,NA,NA,NA,NA,NA,"flexible","Host Has Profile Pic,Host Identity Verified,Is Location Exact"
4310549,"Comfortable Room in Kreuzberg Flat","none","2014-10-07","within a few hours",100,"Berlin",52.4908916797805,13.3948360712641,"Apartment","Private room",2,1.5,1,1,"Real Bed","Internet,Wireless Internet,Kitchen,Heating,Washer,translation missing: en.hosting_amenity_50",30,NA,NA,2,12,88,10,9,9,9,10,9,"flexible","Host Has Profile Pic"
17408493,"Yearning place","none","2016-07-25","a few days or more",0,"Berlin",52.4956609523639,13.3808090198472,"Apartment","Entire home/apt",6,2,2,3,"Real Bed","TV,Internet,Wireless Internet,Air conditioning,Wheelchair accessible,Pool,Kitchen,Free parking on premises,Gym,Breakfast,Elevator in building,Hot tub,Heating,Family/kid friendly,Washer,Dryer,Smoke detector,Carbon monoxide detector,First aid kit,Safety card,Fire extinguisher,Essentials,Shampoo,24-hour check-in,Hair dryer,Iron,Laptop friendly workspace",438,NA,NA,1,0,NA,NA,NA,NA,NA,NA,NA,"flexible","Host Has Profile Pic"
14459263,"One-room Appartement in Bergmannkiez Kreuzberg","none","2016-08-10","within an hour",100,"Berlin",52.4880406483201,13.3856791872196,"Apartment","Entire home/apt",2,1,1,1,"Real Bed","Wireless Internet,Kitchen,Pets allowed,Heating,Washer,Smoke detector,Safety card,Fire extinguisher,Essentials,Shampoo,Hangers,Hair dryer,Iron,Laptop friendly workspace,translation missing: en.hosting_amenity_49,translation missing: en.hosting_amenity_50",76,NA,NA,2,8,93,10,10,10,10,9,9,"moderate","Host Has Profile Pic,Host Identity Verified,Is Location Exact"
11781519,"Big guest room in Kreuzberg","none","2015-06-18","within an hour",100,"Berlin",52.4939444508808,13.3969620414247,"Apartment","Private room",2,1,1,1,"Real Bed","TV,Internet,Wireless Internet,Kitchen,Pets allowed,Buzzer/wireless intercom,Heating,Washer,Dryer,Essentials,Shampoo,Hair dryer,Iron,Laptop friendly workspace,translation missing: en.hosting_amenity_49,translation missing: en.hosting_amenity_50",45,NA,25,1,62,97,10,10,10,10,10,10,"strict","Host Is Superhost,Host Has Profile Pic,Host Identity Verified"
6429562,"Luxury rooftop in Kreuzberg","none","2012-02-07","within a day",100,"Berlin",52.488734400781,13.3976248159386,"Apartment","Entire home/apt",4,1.5,2,2,"Real Bed","Internet,Wireless Internet,Kitchen,Elevator in building,Buzzer/wireless intercom,Heating,Family/kid friendly,Washer,Dryer,Fire extinguisher,Essentials,Shampoo,Hair dryer,Iron,Laptop friendly workspace,Bathtub,Children’s books and toys",255,NA,30,2,7,100,10,10,10,10,10,9,"flexible","Host Has Profile Pic,Host Identity Verified"
8639040,"Fully equipped flat in great area","none","2013-01-16","",NA,"Berlin",52.4906519991154,13.4147410766027,"Apartment","Entire home/apt",2,1,1,1,"Real Bed","TV,Cable TV,Internet,Wireless Internet,Kitchen,Free parking on premises,Elevator in building,Buzzer/wireless intercom,Heating,Washer,Dryer,Essentials,Shampoo",80,NA,NA,5,0,NA,NA,NA,NA,NA,NA,NA,"strict","Host Has Profile Pic,Host Identity Verified,Is Location Exact"
10675015,"Charming, cozy room in Kreuzberg","none","2013-03-08","within a day",90,"Berlin",52.4931260397662,13.3959960335537,"Dorm","Private room",2,2,1,2,"Real Bed","Internet,Wireless Internet,Kitchen,Heating,Washer,First aid kit,24-hour check-in,Hangers,Hair dryer",27,200,25,1,2,100,9,10,10,10,10,9,"flexible","Host Has Profile Pic,Host Identity Verified,Is Location Exact"
9161590,"Bright&spacious room in Kreuzberg","none","2013-11-30","",NA,"Berlin",52.4885166504941,13.3934223073503,"Apartment","Shared room",2,1,1,1,"Real Bed","Internet,Wireless Internet,Kitchen,Hot tub,Heating,Washer,Hangers,Hair dryer,Laptop friendly workspace",20,100,20,4,1,100,8,8,10,10,10,10,"flexible","Host Has Profile Pic"
17746465,"Central Berlin: Bed in shared room","none","2016-05-19","within a few hours",80,"Berlin",52.4953971720047,13.3877464015634,"Apartment","Shared room",1,0.5,1,1,"Futon","Kitchen,Essentials,Shampoo,translation missing: en.hosting_amenity_49,translation missing: en.hosting_amenity_50",26,150,19,3,2,100,6,8,10,10,10,6,"strict","Host Has Profile Pic,Is Location Exact"
10240999,"spacious, ancient and quiet in Kreuzberg","none","2015-12-29","within an hour",100,"Berlin",52.4916966870386,13.4043337181954,"Apartment","Entire home/apt",5,1,2,3,"Real Bed","Internet,Wireless Internet,Kitchen,Free parking on premises,Buzzer/wireless intercom,Heating,Family/kid friendly,Washer,Dryer,Fire extinguisher,Essentials,Shampoo,24-hour check-in,Hangers,Hair dryer,Iron,Laptop friendly workspace,Baby monitor,Outlet covers,Bathtub,High chair,Children’s books and toys,Crib,Room-darkening shades",149,NA,NA,3,50,93,10,9,9,10,10,9,"moderate","Host Has Profile Pic,Is Location Exact,Instant Bookable"
2737070,"Super Location/ Bergmannstrasse","none","2014-04-07","",NA,"Berlin",52.4891623752839,13.3952978258343,"Apartment","Entire home/apt",6,1,2,2,"Real Bed","TV,Cable TV,Internet,Wireless Internet,Kitchen,Buzzer/wireless intercom,Heating,Family/kid friendly,Washer,Safety card,Essentials,translation missing: en.hosting_amenity_50",120,180,NA,5,6,96,10,10,10,10,10,10,"flexible","Host Has Profile Pic,Is Location Exact"
997089,"AUTHENTIC ART IN GORLITZER PARK!!","none","2012-12-25","within an hour",79,"Berlin",52.4972277052954,13.4371272397145,"Apartment","Entire home/apt",3,1,1,2,"Real Bed","Wireless Internet,Kitchen,Breakfast,Hot tub,Buzzer/wireless intercom,Heating,Family/kid friendly,Shampoo,Hangers,Hair dryer,Laptop friendly workspace,Bathtub,Babysitter recommendations",90,250,40,2,73,93,9,9,9,9,10,9,"strict","Host Has Profile Pic,Instant Bookable"
17134665,"*Cosy Bright Room in vivid 36 Area*","none","2014-08-25","within an hour",100,"Berlin",52.4988813198469,13.4467015618209,"Apartment","Private room",2,1,1,1,"Real Bed","Wireless Internet,Kitchen,Smoking allowed,Pets allowed,Elevator in building,Heating,Family/kid friendly,Washer,Essentials,Shampoo,Hair dryer,Laptop friendly workspace,translation missing: en.hosting_amenity_50",34,NA,5,1,3,100,10,10,10,9,10,10,"flexible","Host Has Profile Pic,Instant Bookable"
158890,"Loft Appartment in Berlin Kreuzberg","none","2011-06-30","within a day",50,"Berlin",52.4990345036111,13.4365368457478,"Apartment","Entire home/apt",2,1,1,2,"Real Bed","TV,Cable TV,Internet,Wireless Internet,Kitchen,Buzzer/wireless intercom,Heating,Washer",100,200,40,5,3,100,9,10,9,9,9,9,"moderate","Host Has Profile Pic,Host Identity Verified,Is Location Exact"
12860794,"Bright room next to Görlitzer Park","none","2016-02-15","within an hour",100,"Berlin",52.4954435715816,13.433365164419,"Apartment","Private room",2,1,1,1,"Real Bed","Internet,Wireless Internet,Kitchen,Heating,Washer,Shampoo,Hangers,Iron,Laptop friendly workspace",30,NA,15,1,8,90,9,9,9,8,9,9,"moderate","Host Has Profile Pic,Host Identity Verified"
9647360,"Kreuzberg | Görlitzer Park","none","2012-10-21","",NA,"Berlin",52.4959821157777,13.4373675604131,"Apartment","Entire home/apt",4,1,2,2,"Real Bed","Internet,Wireless Internet,Kitchen,Buzzer/wireless intercom,Heating,Family/kid friendly,Washer,Shampoo,Iron,Laptop friendly workspace",50,150,30,3,0,NA,NA,NA,NA,NA,NA,NA,"flexible","Host Has Profile Pic,Host Identity Verified"
15497706,"Coole, gemütliche Wohnung im Herzen von Kreuzberg","none","2016-10-13","",NA,"Berlin",52.4993212959042,13.4420404863805,"Apartment","Entire home/apt",3,1,1,2,"Real Bed","TV,Wireless Internet,Kitchen,Pets allowed,Washer,Essentials,Hair dryer",47,NA,5,1,0,NA,NA,NA,NA,NA,NA,NA,"flexible","Host Has Profile Pic,Is Location Exact"
17085975,"Cosy one bedroom designer apartment","none","2016-10-04","within a day",97,"Berlin",52.4936686712449,13.4373081824467,"Apartment","Entire home/apt",2,1,1,1,"Real Bed","TV,Wireless Internet,Kitchen,Elevator in building,Family/kid friendly,Smoke detector,Essentials,Shampoo,Hair dryer",140,300,0,3,0,NA,NA,NA,NA,NA,NA,NA,"flexible","Host Has Profile Pic,Host Identity Verified,Is Location Exact"
1698561,"Room in the heart of Kreuzberg","none","2013-09-12","",NA,"Berlin",52.4949566682984,13.4305106037479,"Apartment","Private room",2,1,1,1,"Real Bed","Internet,Wireless Internet,Kitchen,Buzzer/wireless intercom,Heating,Washer,Essentials,Hangers,Hair dryer,Iron,Laptop friendly workspace,Hot water,Bed linens,Coffee maker,Refrigerator,Dishes and silverware,Cooking basics,Oven,Stove,Luggage dropoff allowed,Long term stays allowed,Wide hallway clearance,Wide doorway,Path to entrance lit at night,Wide clearance to bed",48,NA,15,2,8,90,9,10,10,10,10,9,"flexible","Host Has Profile Pic,Is Location Exact"
13585638,"Charming flat at the heart of Kreuzberg","none","2014-06-02","",NA,"Berlin",52.4937017688198,13.4313922325436,"Apartment","Private room",1,1,1,1,"Real Bed","Wireless Internet,Kitchen,Smoking allowed,Heating,Washer,First aid kit,Essentials,Hangers,Hair dryer,Iron,Laptop friendly workspace,translation missing: en.hosting_amenity_49,translation missing: en.hosting_amenity_50",35,100,NA,2,0,NA,NA,NA,NA,NA,NA,NA,"flexible","Host Has Profile Pic"
15205245,"stylish room in the heart of Kreuzberg","none","2014-03-27","within a day",90,"Berlin",52.498746356763,13.4233856072052,"Apartment","Private room",2,1,1,1,"Real Bed","Wireless Internet,Kitchen,Hot tub,Heating,Family/kid friendly,Essentials,Shampoo,Hangers,Iron,Laptop friendly workspace,translation missing: en.hosting_amenity_50",45,100,20,2,1,100,10,10,10,10,10,10,"strict","Host Has Profile Pic,Host Identity Verified,Is Location Exact"
2095852,"23m², fully furnished, top location","none","2013-12-18","",NA,"Berlin",52.4951955253211,13.4242312341332,"Apartment","Private room",2,1,1,1,"Real Bed","Internet,Wireless Internet,Kitchen,Free parking on premises,Heating,Washer",30,NA,NA,1,3,93,10,10,10,10,10,10,"moderate","Host Has Profile Pic,Host Identity Verified,Is Location Exact"
8753525,"2-room-apartment in Kreuzberg","none","2015-10-06","",NA,"Berlin",52.495915677161,13.4441312971151,"Apartment","Entire home/apt",3,1,1,2,"Real Bed","TV,Internet,Wireless Internet,Kitchen,Buzzer/wireless intercom,Heating,Family/kid friendly,Washer",50,150,15,2,0,NA,NA,NA,NA,NA,NA,NA,"moderate","Host Has Profile Pic,Is Location Exact"
17086209,"Urbane one bedroom apartment","none","2016-10-04","within a day",97,"Berlin",52.4929302374947,13.4376447555698,"Apartment","Entire home/apt",2,1,1,1,"Real Bed","TV,Wireless Internet,Kitchen,Elevator in building,Heating,Family/kid friendly,Smoke detector,Essentials,Shampoo,Hair dryer,translation missing: en.hosting_amenity_50",140,300,0,3,0,NA,NA,NA,NA,NA,NA,NA,"flexible","Host Has Profile Pic,Host Identity Verified,Is Location Exact"
17085725,"Accessible, sophisticated two bedroom apartment","none","2016-10-04","within a day",97,"Berlin",52.4924249730511,13.4361140220844,"Apartment","Entire home/apt",4,1,2,2,"Real Bed","TV,Wireless Internet,Kitchen,Elevator in building,Heating,Family/kid friendly,Smoke detector,Essentials,Shampoo,Hair dryer",140,300,0,3,0,NA,NA,NA,NA,NA,NA,NA,"flexible","Host Has Profile Pic,Host Identity Verified,Is Location Exact"
14129862,"Cozy room in Berlin-Kreuzberg","none","2014-06-02","within a few hours",86,"Berlin",52.496369995822,13.4344419854876,"Apartment","Private room",2,1,1,1,"Real Bed","Wireless Internet,Kitchen,Pets live on this property,Buzzer/wireless intercom,Heating,Washer,Smoke detector,Essentials,24-hour check-in,Hangers,Hair dryer,translation missing: en.hosting_amenity_49,translation missing: en.hosting_amenity_50",25,500,NA,5,24,97,9,9,10,10,10,9,"moderate","Host Has Profile Pic"
4627088,"Room with &lt;3 at Landwehrkanal","none","2013-04-09","within an hour",100,"Berlin",52.4950992467881,13.4237063032404,"Apartment","Private room",2,1,1,1,"Real Bed","Internet,Wireless Internet,Kitchen,Pets live on this property,Dog(s),Buzzer/wireless intercom,Heating,Washer,Essentials,Shampoo,translation missing: en.hosting_amenity_49",50,100,25,1,12,96,10,10,10,10,10,9,"moderate","Host Has Profile Pic,Is Location Exact"
12240750,"***Nice 50m²big Room in trendy Kreuzberg!!!***","none","2014-09-27","within a few hours",83,"Berlin",52.4943671187127,13.4328119980205,"Apartment","Private room",4,1.5,1,2,"Real Bed","Internet,Wireless Internet,Kitchen,Free parking on premises,Buzzer/wireless intercom,Heating,Family/kid friendly,Washer,Fire extinguisher,Essentials,Shampoo,24-hour check-in,Hangers,Hair dryer,Iron,Laptop friendly workspace,translation missing: en.hosting_amenity_50",30,NA,15,3,1,80,NA,NA,NA,NA,NA,8,"strict","Host Has Profile Pic,Host Identity Verified"
16498733,"A nice room in Kreuzberg, the heart of Berlin.","none","2015-06-20","within a day",78,"Berlin",52.497975735235,13.424839221237,"Apartment","Private room",2,1,1,1,"Real Bed","Wireless Internet,Kitchen,Heating,Essentials,translation missing: en.hosting_amenity_49,translation missing: en.hosting_amenity_50",50,NA,NA,1,0,NA,NA,NA,NA,NA,NA,NA,"flexible","Host Has Profile Pic,Is Location Exact"
4818718,"Stylish flat in Berlin's best hood","none","2013-02-26","",NA,"Berlin",52.4955718001698,13.4261762311859,"Apartment","Private room",2,1,1,2,"Real Bed","Kitchen,Smoking allowed,Buzzer/wireless intercom,Heating,Family/kid friendly,Washer,Essentials",46,NA,NA,3,0,NA,NA,NA,NA,NA,NA,NA,"moderate","Host Has Profile Pic,Host Identity Verified,Is Location Exact"
17529535,"A cosy flat in the heart of Kreuzberg","none","2015-12-03","within a few hours",100,"Berlin",52.4964491988849,13.4239215765138,"Apartment","Private room",2,1,1,1,"Real Bed","TV,Cable TV,Wireless Internet,Kitchen,Buzzer/wireless intercom,Heating,Washer,Essentials,Hangers,Hair dryer,Laptop friendly workspace,translation missing: en.hosting_amenity_49,translation missing: en.hosting_amenity_50",30,NA,25,1,4,90,10,10,10,10,10,10,"flexible","Host Has Profile Pic,Host Identity Verified,Is Location Exact"
8286890,"","none","2015-08-15","",NA,"Berlin",52.4990524357496,13.4362430547564,"Apartment","Private room",2,1,1,1,"Real Bed","Internet,Wireless Internet,Kitchen,Heating,Washer,Essentials",35,200,NA,4,3,80,8,7,9,9,10,8,"strict","Host Has Profile Pic,Is Location Exact"
6124192,"Room for 2: quiet street Kreuzberg","none","2015-04-23","within a day",100,"Berlin",52.4979901514133,13.4372555823567,"Apartment","Private room",2,1,1,1,"Real Bed","Internet,Wireless Internet,Kitchen,Smoking allowed,Buzzer/wireless intercom,Heating,Washer,Smoke detector,Safety card,Essentials,Laptop friendly workspace,translation missing: en.hosting_amenity_50",25,200,20,5,10,89,9,9,10,10,10,9,"strict","Host Has Profile Pic,Host Identity Verified"
17535401,"Cozy and bright room in Kreuzberg","none","2015-07-14","within a day",93,"Berlin",52.4999470434442,13.4402367907813,"Apartment","Private room",1,1,1,1,"Pull-out Sofa","Internet,Wireless Internet,Kitchen,Smoking allowed,Pets live on this property,Buzzer/wireless intercom,Heating,Essentials,Hangers,Hair dryer,Iron,Laptop friendly workspace,translation missing: en.hosting_amenity_49,translation missing: en.hosting_amenity_50",35,NA,NA,2,4,100,10,10,9,10,10,10,"moderate","Host Has Profile Pic"
2649452,"Living in the heart of Kreuzberg","none","2014-03-26","",NA,"Berlin",52.496280504257,13.4278819943746,"Apartment","Entire home/apt",3,1,0,1,"Real Bed","Internet,Wireless Internet,Kitchen,Heating,Family/kid friendly,Washer,Essentials",50,NA,40,4,9,98,9,10,10,10,10,9,"strict","Host Has Profile Pic,Host Identity Verified,Is Location Exact"
768330,"Cosy room with balcon in kreuzberg","none","2012-07-03","within an hour",100,"Berlin",52.498308529714,13.4048591398584,"Apartment","Private room",4,1,1,2,"Real Bed","Wireless Internet,Kitchen,Elevator in building,Heating,translation missing: en.hosting_amenity_50",40,100,15,2,102,80,8,8,9,9,9,8,"moderate","Host Has Profile Pic,Is Location Exact,Instant Bookable"
9106724,"Nice studio near to Potsdamer Platz","none","2015-04-29","",NA,"Berlin",52.503810673405,13.3762363250375,"Apartment","Entire home/apt",1,1,0,1,"Real Bed","Wireless Internet,Kitchen,Heating,Washer,Iron",35,400,NA,1,0,NA,NA,NA,NA,NA,NA,NA,"flexible","Host Has Profile Pic,Host Identity Verified,Is Location Exact"
15839576,"Lift& free breakfast-Room in the heart of Kreuzbeg","none","2014-08-26","within an hour",100,"Berlin",52.4973826310292,13.4182137263151,"Apartment","Private room",2,1.5,1,1,"Real Bed","TV,Cable TV,Internet,Wireless Internet,Kitchen,Smoking allowed,Breakfast,Elevator in building,Buzzer/wireless intercom,Heating,Family/kid friendly,Washer,Essentials,Shampoo,Hangers,Hair dryer,Laptop friendly workspace,Bathtub,Baby bath,Changing table",39,100,20,1,28,98,10,10,10,10,10,10,"moderate","Host Is Superhost,Host Has Profile Pic,Host Identity Verified,Instant Bookable"
16821096,"F17  luxurious furnished maisonette apartment","none","2016-08-02","within a few hours",100,"Berlin",52.5033685863155,13.3910175676893,"Apartment","Entire home/apt",2,1,1,1,"Real Bed","TV,Internet,Wireless Internet,Kitchen,Heating,Essentials,Hangers,Hair dryer,Iron,Private entrance",138,NA,59,3,6,100,10,10,10,9,9,9,"strict","Host Has Profile Pic,Is Location Exact"
9446553,"Vilhelm7 Suite 1","none","2015-11-13","within a day",50,"Berlin",52.5007825484196,13.3881865159222,"House","Entire home/apt",3,1,1,1,"Real Bed","TV,Internet,Heating,Smoke detector,Safety card,Fire extinguisher,Essentials,Shampoo,24-hour check-in,Hair dryer,Iron",149,NA,30,2,1,100,10,10,10,10,10,10,"moderate","Host Is Superhost,Host Has Profile Pic,Is Location Exact,Instant Bookable"
11589376,"Wonderful room in nice WG at Kotti!","none","2014-09-16","",NA,"Berlin",52.498160989348,13.4183895048781,"Apartment","Private room",1,1,1,1,"Real Bed","Internet,Wireless Internet,Wheelchair accessible,Kitchen,Smoking allowed,Pets allowed,Elevator in building,Buzzer/wireless intercom,Heating,Washer,Essentials,Shampoo,Hangers",18,NA,NA,1,1,80,8,6,8,8,10,8,"flexible","Host Has Profile Pic,Is Location Exact"
14226951,"Room right on Kottbusser Tor, Kreuzberg","none","2016-03-04","",NA,"Berlin",52.4972392604936,13.4163391930872,"Apartment","Private room",2,1.5,1,1,"Real Bed","TV,Wireless Internet,Kitchen,Smoking allowed,Elevator in building,Heating,Washer,Essentials,Lock on bedroom door,Hangers,Laptop friendly workspace",25,NA,NA,7,1,100,8,10,10,10,8,10,"flexible","Host Has Profile Pic,Is Location Exact,Instant Bookable"
18471677,"Cosy bright room in flat share, Schöneberg","none","2014-01-13","within an hour",100,"Berlin",52.4966910208304,13.4077751993492,"Apartment","Private room",1,1,1,1,"Real Bed","Wireless Internet,Kitchen,Washer,Shampoo,Hangers,Laptop friendly workspace,translation missing: en.hosting_amenity_49",20,300,10,3,0,NA,NA,NA,NA,NA,NA,NA,"flexible","Host Has Profile Pic,Host Identity Verified,Is Location Exact"
9202874,"Spacious Penthouse in Berlin Center","none","2012-12-05","within a few hours",100,"Berlin",52.499847029148,13.3877071812939,"Apartment","Entire home/apt",4,1,0,2,"Real Bed","Internet,Wireless Internet,Kitchen,Elevator in building,Hot tub,Buzzer/wireless intercom,Heating,Washer,Essentials,Hangers,translation missing: en.hosting_amenity_50",68,100,30,1,7,91,9,9,10,10,10,10,"flexible","Host Has Profile Pic,Host Identity Verified,Is Location Exact"
16421841,"Freaky flat with freaky people","none","2016-12-18","within an hour",100,"Berlin",52.4914567351834,13.3788290586189,"Apartment","Private room",3,2,1,2,"Real Bed","Wireless Internet,Kitchen,Smoking allowed,Breakfast,Elevator in building,Heating,Fire extinguisher,Essentials,Shampoo,Lock on bedroom door,Laptop friendly workspace,translation missing: en.hosting_amenity_49,translation missing: en.hosting_amenity_50,Private living room",27,NA,NA,1,7,91,10,7,9,9,10,10,"strict","Host Has Profile Pic,Is Location Exact"
5395504,"beautiful large room in kreuzberg","none","2013-02-17","within a day",70,"Berlin",52.4915307859956,13.3855135253135,"Apartment","Private room",2,1,1,1,"Real Bed","Internet,Wireless Internet,Kitchen,Buzzer/wireless intercom,Heating,Washer,Essentials,translation missing: en.hosting_amenity_49,translation missing: en.hosting_amenity_50",25,NA,NA,1,2,100,10,9,10,10,10,10,"moderate","Host Has Profile Pic,Host Identity Verified,Is Location Exact"
765271,"Room with Ocean View in Kreuzberg","none","2012-11-01","",NA,"Berlin",52.4891249713983,13.3926547052171,"Apartment","Private room",2,2,1,1,"Real Bed","Cable TV,Internet,Wireless Internet,Kitchen,Elevator in building,Buzzer/wireless intercom,Heating,Washer,Hangers,Hair dryer,Laptop friendly workspace,translation missing: en.hosting_amenity_49,translation missing: en.hosting_amenity_50",41,NA,NA,6,6,90,10,9,10,10,10,9,"strict","Host Has Profile Pic,Host Identity Verified,Is Location Exact"
16452817,"Big spacious room in the heart of Berlin","none","2015-09-10","a few days or more",33,"Berlin",52.4931718219278,13.4153651636077,"Apartment","Private room",2,1,1,1,"Real Bed","TV,Wireless Internet,Kitchen,Pets allowed,Heating,Family/kid friendly,Washer,Essentials,Shampoo,Hair dryer,Laptop friendly workspace,Private entrance",40,NA,8,7,1,100,10,8,10,10,8,10,"flexible","Host Has Profile Pic,Is Location Exact"
398962,"SUNNY LOFT/ARTIST-SPACE IN NEUKÖLLN","none","2012-03-23","within a day",100,"Berlin",52.4906909286237,13.4233026331369,"Loft","Entire home/apt",2,1,1,1,"Futon","TV,Internet,Wireless Internet,Kitchen,Heating,Family/kid friendly,Washer,Essentials,Shampoo,Hangers,Hair dryer,Laptop friendly workspace",80,300,50,5,15,96,10,8,10,10,10,9,"strict","Host Has Profile Pic,Host Identity Verified,Is Location Exact"
17690872,"cozy room in a large Wedding apartement","none","2017-03-13","within a day",80,"Berlin",52.5518626958492,13.3725009141121,"Apartment","Private room",2,1.5,1,1,"Real Bed","Wireless Internet,Kitchen,Heating,Family/kid friendly,Washer,Essentials,Hangers,Hair dryer,Iron,Private living room",33,NA,NA,2,5,92,10,10,10,10,9,10,"flexible","Host Has Profile Pic,Is Location Exact,Instant Bookable"
18205020,"Wunderschöne Altbauwohnung","none","2015-03-22","within a day",50,"Berlin",52.5499439560523,13.3582535097536,"Apartment","Entire home/apt",4,1,2,2,"Real Bed","TV,Wireless Internet,Kitchen,Heating,Family/kid friendly,Washer,Smoke detector,Essentials,Shampoo,Hair dryer,Laptop friendly workspace,translation missing: en.hosting_amenity_50",80,NA,35,1,0,NA,NA,NA,NA,NA,NA,NA,"flexible","Host Has Profile Pic,Is Location Exact"
7434973,"Familienfreundliche modere 3 Zi. in alter Fabrik","none","2014-10-07","",NA,"Berlin",52.5517502673866,13.363226644453,"Apartment","Entire home/apt",6,1,2,5,"Real Bed","TV,Cable TV,Wireless Internet,Wheelchair accessible,Kitchen,Free parking on premises,Pets live on this property,Cat(s),Elevator in building,Buzzer/wireless intercom,Heating,Family/kid friendly,Washer,Dryer,Smoke detector,First aid kit,Fire extinguisher,Essentials,Hangers,Hair dryer,Iron",110,350,85,6,1,100,10,8,10,10,10,8,"strict","Host Has Profile Pic,Is Location Exact"
17259371,"Gemütlich und zentral 27m² in WG","none","2016-09-08","within a few hours",100,"Berlin",52.5471948277352,13.3640618498222,"Apartment","Private room",1,1,1,1,"Real Bed","TV,Internet,Wireless Internet,Kitchen,Buzzer/wireless intercom,Heating,Washer,Essentials,Lock on bedroom door,Hangers,Hair dryer,Laptop friendly workspace,translation missing: en.hosting_amenity_49,translation missing: en.hosting_amenity_50",26,NA,NA,3,0,NA,NA,NA,NA,NA,NA,NA,"flexible","Host Has Profile Pic,Instant Bookable"
12865017,"Cosy Apartment @Leopoldplatz,Berlin","none","2016-02-19","",NA,"Berlin",52.545625715297,13.359844484943,"Apartment","Private room",2,1,1,1,"Real Bed","Internet,Wireless Internet,Kitchen,Heating,Family/kid friendly,Washer,Essentials,Shampoo,Hangers,Hair dryer,Iron,Laptop friendly workspace,translation missing: en.hosting_amenity_50",65,90,5,2,0,NA,NA,NA,NA,NA,NA,NA,"moderate","Host Has Profile Pic"
7817591,"Cosy apt with great connection","none","2014-07-21","",NA,"Berlin",52.5542350810221,13.3824361387516,"Apartment","Private room",2,1,1,1,"Real Bed","Internet,Wireless Internet,Kitchen,Heating,Washer,Essentials",25,NA,NA,1,1,100,10,8,10,10,10,10,"flexible","Host Has Profile Pic,Host Identity Verified,Is Location Exact"
8592135,"","none","2015-09-02","",NA,"Berlin",52.5415759621878,13.351148410667,"Townhouse","Private room",1,1,1,1,"Real Bed","Internet,Wireless Internet,Kitchen,Heating,Washer,Essentials,Hair dryer,translation missing: en.hosting_amenity_49,translation missing: en.hosting_amenity_50",15,NA,10,5,1,80,8,6,8,10,8,10,"flexible","Host Has Profile Pic,Is Location Exact"
3605741,"Sunny in Wedding","none","2013-05-07","",NA,"Berlin",52.5499274393919,13.359638752095,"Apartment","Entire home/apt",2,1,0,1,"Real Bed","TV,Cable TV,Internet,Wireless Internet,Kitchen,Buzzer/wireless intercom,Heating,Family/kid friendly",45,250,30,1,3,100,10,10,10,10,10,10,"moderate","Host Has Profile Pic,Host Identity Verified,Is Location Exact"
8283733,"Central apartment 75 sq meters","none","2013-07-26","",NA,"Berlin",52.534420390485,13.3478810199446,"Condominium","Entire home/apt",4,1,2,2,"Real Bed","TV,Cable TV,Internet,Wireless Internet,Kitchen,Buzzer/wireless intercom,Heating,Family/kid friendly,Washer,Smoke detector",55,NA,10,4,0,NA,NA,NA,NA,NA,NA,NA,"flexible","Host Has Profile Pic"
14079440,"8-bed-dorm with shared bathroom","none","2014-08-07","within a few hours",100,"Berlin",52.5237796866317,13.356240221803,"Other","Shared room",8,3,1,8,"Airbed","TV,Wireless Internet,Kitchen,Heating,Smoke detector,Fire extinguisher,translation missing: en.hosting_amenity_49,translation missing: en.hosting_amenity_50",14,NA,NA,1,7,80,8,6,6,8,8,7,"moderate","Host Has Profile Pic,Host Identity Verified,Is Location Exact"
6502910,"Prenzl.Berg, Ecke Schönhauser, 2 P.","none","2014-01-10","",NA,"Berlin",52.5467590831973,13.4110502778897,"Apartment","Private room",2,1,1,2,"Real Bed","TV,Cable TV,Internet,Wireless Internet,Kitchen,Pets live on this property,Cat(s),Buzzer/wireless intercom,Heating,Washer",30,NA,15,2,1,100,10,10,10,10,10,10,"flexible","Host Has Profile Pic,Host Identity Verified,Is Location Exact"
17837214,"Mauerpark Loft 4","none","2017-02-20","within an hour",100,"Berlin",52.5491762087323,13.4112711594296,"Apartment","Entire home/apt",6,2,2,3,"Real Bed","TV,Internet,Wireless Internet,Kitchen,Heating,Family/kid friendly,Washer,Smoke detector,Essentials,Hangers,Hair dryer,Iron,Private living room,TV",79,100,60,1,1,100,10,10,10,10,10,10,"strict","Host Has Profile Pic,Host Identity Verified,Instant Bookable"
2697809,"Welcome to Apartment ""N°2""!","none","2011-10-17","within a few hours",100,"Berlin",52.5538826420641,13.4020124082583,"Apartment","Entire home/apt",2,1,1,1,"Real Bed","TV,Cable TV,Kitchen,Buzzer/wireless intercom,Heating,Family/kid friendly,Smoke detector,Carbon monoxide detector,First aid kit,Fire extinguisher,Essentials,Shampoo,24-hour check-in,Hangers,Hair dryer,Iron,Laptop friendly workspace",49,NA,25,1,95,93,10,10,10,10,9,9,"moderate","Host Has Profile Pic,Host Identity Verified,Is Location Exact"
16391647,"Cosy apartment next to Prenzlauer Berg 50qm","none","2016-12-07","within a day",100,"Berlin",52.5542519443786,13.4148522997401,"Apartment","Entire home/apt",2,1,1,1,"Real Bed","TV,Internet,Wireless Internet,Kitchen,Heating,Washer,Essentials,Shampoo,Hangers,Hair dryer,Iron,translation missing: en.hosting_amenity_49,translation missing: en.hosting_amenity_50",49,250,25,14,1,100,10,10,10,6,10,10,"strict","Host Has Profile Pic"
9247503,"24m2 in flat-share Prenzlauer Berg","none","2015-11-03","within an hour",100,"Berlin",52.5484230846857,13.4025686728866,"Apartment","Private room",2,1,1,1,"Real Bed","TV,Internet,Wireless Internet,Kitchen,Smoking allowed,Heating,Washer,Essentials,Hangers,Laptop friendly workspace,translation missing: en.hosting_amenity_49,translation missing: en.hosting_amenity_50",25,NA,NA,1,1,40,10,2,10,10,6,6,"flexible","Host Has Profile Pic,Instant Bookable"
10620780,"Bright, spacious, lovely double","none","2015-11-18","within an hour",100,"Berlin",52.5457274513794,13.4086471790597,"Apartment","Private room",2,1,1,1,"Real Bed","Internet,Wireless Internet,Kitchen,Heating,Washer,Essentials,Hangers,Hair dryer",41,NA,NA,2,17,88,9,9,9,9,10,9,"flexible","Host Has Profile Pic,Host Identity Verified,Is Location Exact"
14877692,"Cosy flat very well located in Prenzlauer Berg.","none","2015-01-15","within an hour",100,"Berlin",52.5429749192394,13.4384411118769,"Other","Entire home/apt",2,1,1,1,"Real Bed","TV,Wireless Internet,Kitchen,Smoking allowed,Heating,Washer,Essentials,Hangers,Hair dryer,Laptop friendly workspace,translation missing: en.hosting_amenity_49,translation missing: en.hosting_amenity_50",60,NA,30,3,1,100,10,10,10,10,10,10,"flexible","Host Has Profile Pic,Is Location Exact,Instant Bookable"
11297119,"Perfectly located cosy room","none","2013-01-24","within an hour",100,"Berlin",52.5492653128477,13.4166172866636,"Apartment","Private room",2,1,1,1,"Real Bed","Wireless Internet,Kitchen,Heating,Washer,Dryer,Essentials,Hair dryer,Iron,Laptop friendly workspace",35,NA,5,3,1,100,10,8,8,8,10,10,"strict","Host Has Profile Pic,Host Identity Verified,Is Location Exact"
5349474,"Modernes sonniges Maisonettes-Loft (Ab 4 Personen)","none","2013-05-22","within a day",90,"Berlin",52.546335997418,13.4405034536247,"Loft","Entire home/apt",6,1,2,3,"Real Bed","TV,Cable TV,Internet,Wireless Internet,Kitchen,Elevator in building,Buzzer/wireless intercom,Heating,Washer,Dryer,Essentials,Shampoo,Hair dryer,Laptop friendly workspace",185,NA,70,2,20,97,10,9,10,10,9,9,"moderate","Host Has Profile Pic,Host Identity Verified,Is Location Exact"
9746092,"Charming Furnished Room in Prenzlauer Berg","none","2013-05-02","",NA,"Berlin",52.5528555443008,13.4146700191265,"Apartment","Private room",1,1,1,1,"Real Bed","Cable TV,Internet,Wireless Internet,Kitchen,Smoking allowed,Pets live on this property,Cat(s),Buzzer/wireless intercom,Heating,Washer,24-hour check-in,Hangers,Hair dryer,Iron,Laptop friendly workspace,translation missing: en.hosting_amenity_49,translation missing: en.hosting_amenity_50",24,150,NA,1,0,NA,NA,NA,NA,NA,NA,NA,"flexible","Host Has Profile Pic,Host Identity Verified,Is Location Exact,Require Guest Phone Verification"
16392430,"Huge one bedroom apartment in Prenzlauer berg","none","2013-12-22","within an hour",100,"Berlin",52.5499054105166,13.4145740997618,"Apartment","Entire home/apt",3,1,1,1,"Real Bed","TV,Internet,Wireless Internet,Kitchen,Heating,Family/kid friendly,Washer,Dryer,Essentials,Shampoo,Hangers,Hair dryer,Laptop friendly workspace,Bathtub,Game console",50,NA,30,3,2,80,9,9,10,9,10,10,"moderate","Host Has Profile Pic,Host Identity Verified,Is Location Exact,Instant Bookable"
17021597,"Cosy Flat in the Heart of Prenzlauer Berg","none","2015-11-21","within a day",100,"Berlin",52.5506919140706,13.4142769978202,"Apartment","Entire home/apt",2,1,1,1,"Real Bed","Wireless Internet,Kitchen,Buzzer/wireless intercom,Heating,Washer,Dryer,First aid kit,Essentials,Shampoo,Hangers,Laptop friendly workspace",50,NA,NA,1,1,100,10,10,10,10,10,10,"moderate","Host Has Profile Pic,Host Identity Verified,Is Location Exact"
2172749,"Comfortable quiet flat in great location","none","2011-07-15","within an hour",100,"Berlin",52.5480537140706,13.4267645817489,"Apartment","Entire home/apt",2,1,1,1,"Real Bed","Internet,Wireless Internet,Kitchen,Free parking on premises,Hot tub,Heating,Washer,Essentials,Shampoo,Hangers,Hair dryer,Iron,Laptop friendly workspace,translation missing: en.hosting_amenity_49,translation missing: en.hosting_amenity_50",40,120,NA,7,8,93,10,9,10,10,9,10,"strict","Host Has Profile Pic,Host Identity Verified,Is Location Exact"
7511551,"Cosy City Studio","none","2013-04-27","",NA,"Berlin",52.5501283920323,13.4141825518273,"Apartment","Private room",2,1,1,1,"Real Bed","Internet,Wireless Internet,Kitchen,Buzzer/wireless intercom,Heating,Family/kid friendly,Washer,Shampoo",63,NA,NA,2,11,96,9,10,9,9,10,9,"moderate","Host Has Profile Pic,Host Identity Verified,Is Location Exact"
6408597,"Nice Room near Alexanderplatz","none","2015-05-15","",NA,"Berlin",52.5425305782573,13.4332863545155,"House","Private room",2,1,1,1,"Real Bed","Internet,Wireless Internet,Kitchen,Heating,Washer,Essentials",25,NA,NA,3,1,100,10,10,10,8,10,10,"flexible","Host Has Profile Pic,Host Identity Verified"
6539848,"Family-friendly 100qm flat","none","2015-05-25","",NA,"Berlin",52.5508370952269,13.4179991225007,"Apartment","Entire home/apt",4,1,1,1,"Real Bed","TV,Cable TV,Internet,Wireless Internet,Kitchen,Buzzer/wireless intercom,Heating,Family/kid friendly,Washer,Essentials",110,200,30,3,2,100,10,9,9,10,10,10,"moderate","Host Has Profile Pic,Host Identity Verified,Is Location Exact"
11457977,"Beautiful apartment for up to 5 ppl","none","2016-02-24","",NA,"Berlin",52.5448115989478,13.4260541272912,"Apartment","Entire home/apt",5,1,2,2,"Real Bed","TV,Cable TV,Internet,Wireless Internet,Kitchen,Buzzer/wireless intercom,Heating,Family/kid friendly,Washer,Essentials,Shampoo,24-hour check-in,Hangers,Hair dryer,Iron,Laptop friendly workspace",65,NA,NA,2,0,NA,NA,NA,NA,NA,NA,NA,"flexible","Host Has Profile Pic,Is Location Exact"
17729940,"Two rooms in cosy Prenzlauer Berg flat","none","2014-07-17","within a day",90,"Berlin",52.5482116461621,13.4242927061921,"Apartment","Private room",4,1,2,2,"Real Bed","TV,Wireless Internet,Kitchen,Elevator in building,Buzzer/wireless intercom,Heating,Family/kid friendly,Washer,Essentials,Hair dryer,Iron,Laptop friendly workspace,translation missing: en.hosting_amenity_50",105,NA,40,2,0,NA,NA,NA,NA,NA,NA,NA,"strict","Host Has Profile Pic,Is Location Exact"
18573539,"Flat for 2-4 people in the trendy Prenzlauer Berg","none","2013-05-25","",NA,"Berlin",52.5511241322388,13.4176672462066,"Apartment","Entire home/apt",4,1,1,2,"Real Bed","TV,Wireless Internet,Kitchen,Pets allowed,Heating,Washer,Essentials,Hair dryer,Laptop friendly workspace,translation missing: en.hosting_amenity_49,translation missing: en.hosting_amenity_50",70,NA,40,3,0,NA,NA,NA,NA,NA,NA,NA,"flexible","Host Has Profile Pic,Is Location Exact,Instant Bookable"
15429986,"Gemütliches 3-Bett-Apartment in Prenzlauer Berg","none","2016-10-09","within an hour",100,"Berlin",52.5460181618207,13.4234636059802,"Apartment","Entire home/apt",2,1,1,2,"Real Bed","Wireless Internet,Kitchen,Elevator in building,Heating,Washer,Essentials,Shampoo,translation missing: en.hosting_amenity_49,translation missing: en.hosting_amenity_50",36,NA,NA,2,3,100,10,10,10,10,9,10,"flexible","Host Has Profile Pic,Is Location Exact"
281152,"beautiful 3-room-apartment (75 m2)","none","2011-12-02","",NA,"Berlin",52.5489881414671,13.4165063647073,"Apartment","Entire home/apt",3,1,2,2,"Real Bed","TV,Cable TV,Internet,Wireless Internet,Kitchen,Buzzer/wireless intercom,Heating,Family/kid friendly,Washer,Dryer",60,500,60,14,0,NA,NA,NA,NA,NA,NA,NA,"strict","Host Has Profile Pic,Host Identity Verified,Is Location Exact"
18555902,"Bauhaus Style Apartment Prenzlauerberg","none","2013-06-29","within a few hours",100,"Berlin",52.550937900718,13.4232445118575,"Apartment","Entire home/apt",2,1,1,1,"Real Bed","Wireless Internet,Kitchen,Hot tub,Buzzer/wireless intercom,Heating,Washer,Smoke detector,Essentials,Hangers,Hair dryer,Iron,Laptop friendly workspace,translation missing: en.hosting_amenity_49,translation missing: en.hosting_amenity_50",80,NA,35,4,0,NA,NA,NA,NA,NA,NA,NA,"strict","Host Has Profile Pic,Host Identity Verified,Instant Bookable"
18365897,"Zentral & doch gemütlich im Grünen","none","2017-04-05","within a few hours",100,"Berlin",52.5366813855295,13.2885208883766,"Apartment","Private room",5,1,0,2,"Real Bed","TV,Wireless Internet,Kitchen,Pets allowed,Pets live on this property,Dog(s),Heating,Family/kid friendly,Washer,First aid kit,Safety card,Essentials,Hangers,Hair dryer,Iron,Laptop friendly workspace,translation missing: en.hosting_amenity_50",37,100,15,1,0,NA,NA,NA,NA,NA,NA,NA,"strict","Host Has Profile Pic,Is Location Exact,Instant Bookable"
16736305,"Gemütliche Wohnung mit Terasse u Garten","none","2017-01-11","within a day",60,"Berlin",52.5364636193722,13.433636839285,"Apartment","Entire home/apt",2,1,1,1,"Real Bed","Internet,Wireless Internet,Wheelchair accessible,Kitchen,Buzzer/wireless intercom,Heating,Family/kid friendly,Washer,Dryer,First aid kit,Essentials,Shampoo,Lock on bedroom door,Hangers,Hair dryer,Iron,Laptop friendly workspace,translation missing: en.hosting_amenity_50,Private entrance",70,NA,NA,4,1,100,10,10,10,10,10,10,"flexible","Host Has Profile Pic,Is Location Exact"
14199196,"Schöne 1 Zimmer Wohnung in friedrichhein","none","2015-08-05","",NA,"Berlin",52.522067621329,13.4632657082246,"Apartment","Entire home/apt",2,1,0,2,"Real Bed","TV,Wireless Internet,Kitchen,Elevator in building,Heating,Family/kid friendly,Washer,Essentials,Shampoo",50,300,15,3,1,20,2,2,2,2,6,2,"flexible","Host Has Profile Pic,Instant Bookable"
10842974,"Big sunny Apartment Prenzlauer Berg","none","2016-01-26","",NA,"Berlin",52.5513759871398,13.4139853411544,"Apartment","Entire home/apt",4,1,2,2,"Real Bed","TV,Internet,Wireless Internet,Kitchen,Heating,Family/kid friendly,Washer,Essentials,Laptop friendly workspace",69,NA,30,1,0,NA,NA,NA,NA,NA,NA,NA,"flexible","Host Has Profile Pic,Is Location Exact"
18069718,"Chilly room in the heart of Prenzlauer Berg,Berlin","none","2017-04-05","within an hour",100,"Berlin",52.5455745681725,13.4121537648241,"Apartment","Private room",2,1,1,1,"Real Bed","TV,Cable TV,Wireless Internet,Kitchen,Smoking allowed,Buzzer/wireless intercom,Heating,Washer,Essentials,Shampoo,Lock on bedroom door,Hair dryer,Iron,Laptop friendly workspace,translation missing: en.hosting_amenity_49,translation missing: en.hosting_amenity_50",25,NA,NA,2,3,100,10,10,10,10,9,10,"moderate","Host Has Profile Pic,Host Identity Verified,Is Location Exact,Instant Bookable"
14403184,"Zimmer in Berlin Prenzlauer Berg","none","2016-05-09","within an hour",100,"Berlin",52.5516851976888,13.4010273849205,"Apartment","Private room",1,1,1,1,"Real Bed","Kitchen,Washer,Laptop friendly workspace,translation missing: en.hosting_amenity_49,translation missing: en.hosting_amenity_50",30,NA,NA,5,0,NA,NA,NA,NA,NA,NA,NA,"flexible","Host Has Profile Pic"
697887,"Loft Apartment / Atelierwohnung","none","2012-09-15","within an hour",100,"Berlin",52.5498102465021,13.4070161022296,"Apartment","Entire home/apt",6,1,1,3,"Real Bed","TV,Wireless Internet,Kitchen,Heating,Family/kid friendly,Washer,Hair dryer",75,NA,35,2,131,89,9,9,9,10,9,9,"strict","Host Has Profile Pic,Host Identity Verified,Is Location Exact,Instant Bookable"
4952826,"Huge, cosy flat near Mauerpark!","none","2014-06-19","within a day",50,"Berlin",52.5460245067702,13.4113948322818,"Apartment","Entire home/apt",2,1,1,1,"Real Bed","TV,Cable TV,Internet,Wireless Internet,Kitchen,Heating,Family/kid friendly,Washer,Essentials",70,200,30,7,13,98,10,10,9,10,10,10,"strict","Host Has Profile Pic,Host Identity Verified,Is Location Exact"
13288425,"Lovely room in The Heart of Berlin","none","2014-09-09","within a day",60,"Berlin",52.5414927824919,13.4116370621679,"Apartment","Private room",2,1,1,1,"Real Bed","Wireless Internet,Kitchen,Smoking allowed,Washer,Essentials,translation missing: en.hosting_amenity_49,translation missing: en.hosting_amenity_50",32,200,25,10,2,100,10,10,10,10,10,10,"strict","Host Has Profile Pic,Is Location Exact"
559530,"1 Room in Prenzlauer Berg","none","2011-12-05","",NA,"Berlin",52.5457989812437,13.4127642780782,"Apartment","Private room",2,1,1,1,"Real Bed","Internet,Wireless Internet,Wheelchair accessible,Kitchen,Pets live on this property,Other pet(s),Buzzer/wireless intercom,Heating,Family/kid friendly,Washer,Dryer,Shampoo",35,100,15,2,2,100,10,10,10,10,10,10,"flexible","Host Has Profile Pic,Host Identity Verified,Is Location Exact"
16271850,"Cosy Place in Prenzlberg","none","2015-05-26","within a day",90,"Berlin",52.5473859362012,13.4073070606223,"Apartment","Private room",2,1,1,1,"Real Bed","Wireless Internet,Kitchen,Heating,Family/kid friendly,Washer,Essentials,Iron",34,NA,15,1,4,100,10,10,10,10,10,10,"strict","Host Has Profile Pic,Host Identity Verified"
17688189,"City Apartment Prenzlauer Berg 10","none","2017-02-20","within an hour",100,"Berlin",52.5519663568976,13.402540998158,"Apartment","Entire home/apt",2,1,0,1,"Real Bed","TV,Cable TV,Internet,Wireless Internet,Kitchen,Heating,Family/kid friendly,Smoke detector,Essentials,Hangers,Hair dryer,Iron,Private living room,Private entrance,TV",39,100,30,1,0,NA,NA,NA,NA,NA,NA,NA,"strict","Host Has Profile Pic,Host Identity Verified,Instant Bookable"
804949,"big sunny flat for couples&families","none","2012-11-25","within a few hours",100,"Berlin",52.5534877869937,13.4095585483023,"Apartment","Entire home/apt",6,1,3,3,"Real Bed","TV,Internet,Wireless Internet,Kitchen,Buzzer/wireless intercom,Heating,Family/kid friendly,Washer,Essentials,Shampoo,Hair dryer,Iron,Laptop friendly workspace",75,300,30,2,11,88,9,8,9,9,9,8,"moderate","Host Has Profile Pic,Host Identity Verified,Is Location Exact"
14539466,"Bright room, comfy bed, nice area, WG","none","2015-09-10","",NA,"Berlin",52.5375529891616,13.4362108433487,"Apartment","Private room",2,1,1,1,"Airbed","Wireless Internet,Kitchen,Buzzer/wireless intercom,Heating,Washer,Dryer,Essentials,Shampoo,Lock on bedroom door,translation missing: en.hosting_amenity_49,translation missing: en.hosting_amenity_50",31,NA,NA,3,1,NA,NA,NA,NA,NA,NA,NA,"flexible","Host Has Profile Pic,Is Location Exact,Instant Bookable"
4826337,"A beautiful room in Berlin!","none","2014-12-15","",NA,"Berlin",52.5284124574252,13.4517154701613,"Apartment","Private room",2,1,1,2,"Real Bed","Internet,Wireless Internet,Kitchen,Smoking allowed,Pets live on this property,Other pet(s),Heating,Washer,Smoke detector,Essentials",40,NA,NA,1,1,100,10,10,10,10,10,10,"flexible","Host Has Profile Pic,Is Location Exact"
4204729,"BERLIN CITY OPEN SKY","none","2014-01-28","within a day",70,"Berlin",52.5303376152748,13.4559192871374,"Apartment","Entire home/apt",3,1,2,2,"Real Bed","TV,Cable TV,Internet,Wireless Internet,Kitchen,Free parking on premises,Elevator in building,Buzzer/wireless intercom,Heating,Family/kid friendly,Washer,Dryer,First aid kit,Safety card,Essentials,Shampoo",60,500,60,7,2,NA,NA,NA,NA,NA,NA,NA,"strict","Host Has Profile Pic"
17425707,"modern furnished townhouse with garden + car space","none","2017-02-24","within an hour",100,"Berlin",52.522624544491,13.458078445293,"House","Entire home/apt",5,1,3,3,"Real Bed","TV,Wireless Internet,Heating,Family/kid friendly,Smoke detector,Essentials,Hangers,Hair dryer,Iron,Laptop friendly workspace,translation missing: en.hosting_amenity_49,Private entrance",150,NA,NA,90,0,NA,NA,NA,NA,NA,NA,NA,"strict","Host Has Profile Pic,Is Location Exact,Instant Bookable"
13967142,"Charming vintage appartment in the heart of Berlin","none","2015-11-05","within a few hours",83,"Berlin",52.5357082217424,13.4370324808245,"Apartment","Entire home/apt",3,1,0,1,"Real Bed","TV,Wireless Internet,Kitchen,Buzzer/wireless intercom,Heating,Family/kid friendly,Washer,Essentials,Shampoo,Hair dryer,Iron",59,150,20,2,9,100,10,10,10,10,9,10,"strict","Host Has Profile Pic"
7260489,"Lovely Apartment in Kastanienallee","none","2012-10-03","",NA,"Berlin",52.5368338488364,13.4071675451882,"Apartment","Entire home/apt",4,1,3,4,"Real Bed","TV,Cable TV,Internet,Wireless Internet,Kitchen,Heating,Family/kid friendly,Essentials",120,400,75,59,11,93,10,10,10,10,10,9,"flexible","Host Has Profile Pic,Host Identity Verified"
12418852,"Business flat fully serviced, Pberg","none","2013-11-04","within a few hours",100,"Berlin",52.5393583446799,13.4072455955009,"Apartment","Entire home/apt",2,1,1,1,"Real Bed","TV,Internet,Wireless Internet,Kitchen,Buzzer/wireless intercom,Heating,Smoke detector,First aid kit,Essentials,Hangers,Hair dryer,Iron,Laptop friendly workspace,translation missing: en.hosting_amenity_49,translation missing: en.hosting_amenity_50",95,200,NA,4,21,96,10,10,10,10,10,9,"strict","Host Is Superhost,Host Has Profile Pic,Host Identity Verified,Is Location Exact"
571751,"Mediterranean Room next to Center","none","2012-06-04","within an hour",100,"Berlin",52.5323931882689,13.4145652667338,"Apartment","Private room",2,1,1,1,"Real Bed","Internet,Wireless Internet,Kitchen,Buzzer/wireless intercom,Heating,Essentials,Lock on bedroom door,Hair dryer,Laptop friendly workspace,translation missing: en.hosting_amenity_49,translation missing: en.hosting_amenity_50,Hot water,Bed linens,Coffee maker,Refrigerator,Dishes and silverware,Cooking basics,Stove",46,69,12,1,277,90,9,9,9,9,10,9,"strict","Host Has Profile Pic,Is Location Exact"
14152252,"city idyll in Mitte/Prenzlauer Berg","none","2011-10-18","",NA,"Berlin",52.5312996786354,13.4138525517669,"Apartment","Entire home/apt",3,1,2,2,"Real Bed","TV,Wireless Internet,Pets allowed,Buzzer/wireless intercom,Heating,Family/kid friendly,Washer,Essentials,Shampoo,Hangers,Hair dryer,Laptop friendly workspace,translation missing: en.hosting_amenity_50",52,NA,50,1,0,NA,NA,NA,NA,NA,NA,NA,"flexible","Host Has Profile Pic"
15137902,"Cozy Studio in heart of Prenzlauerberg","none","2016-03-02","within an hour",90,"Berlin",52.5375521440458,13.4215124527641,"Apartment","Entire home/apt",2,1,0,1,"Real Bed","Wireless Internet,Kitchen,Heating,Washer,Essentials,Shampoo,Hangers,Hair dryer,Laptop friendly workspace,translation missing: en.hosting_amenity_49,translation missing: en.hosting_amenity_50",50,NA,30,1,4,90,9,8,9,8,10,9,"strict","Host Has Profile Pic"
15046534,"Quiet and nice little flat for you!","none","2016-03-16","",NA,"Berlin",52.5329676829769,13.4174469866997,"Apartment","Entire home/apt",2,1,1,1,"Real Bed","TV,Internet,Wireless Internet,Kitchen,Smoking allowed,Heating,Family/kid friendly,Washer,Shampoo,Hangers,Hair dryer",82,NA,NA,5,0,NA,NA,NA,NA,NA,NA,NA,"flexible","Host Has Profile Pic,Host Identity Verified"
13575431,"2-room apartment with terrace in Prenzlauer Berg","none","2014-06-07","within a few hours",100,"Berlin",52.5316752050799,13.4162879566517,"Apartment","Entire home/apt",4,1,2,2,"Real Bed","Internet,Wireless Internet,Kitchen,Buzzer/wireless intercom,Heating,Washer,Safety card,Essentials,Shampoo,24-hour check-in,Hangers,Iron,Laptop friendly workspace,translation missing: en.hosting_amenity_49,translation missing: en.hosting_amenity_50,Self Check-In,Lockbox,Bathtub",50,NA,30,14,1,80,10,10,8,10,10,8,"strict","Host Has Profile Pic,Host Identity Verified,Is Location Exact,Instant Bookable"
1675786,"Exclusive apartment,quiet&central","none","2012-11-01","within a few hours",100,"Berlin",52.5350058820903,13.4170260584302,"Apartment","Entire home/apt",2,1,1,1,"Real Bed","TV,Cable TV,Internet,Wireless Internet,Kitchen,Buzzer/wireless intercom,Heating,Washer,Smoke detector,Essentials,Shampoo,Hangers,Hair dryer,Iron,Laptop friendly workspace,translation missing: en.hosting_amenity_49,translation missing: en.hosting_amenity_50",90,350,40,1,67,95,9,10,10,10,10,9,"moderate","Host Is Superhost,Host Has Profile Pic"
3080746,"Spacious+Atypical Loft Pberg-Mitte","none","2012-12-27","within an hour",100,"Berlin",52.5364971891529,13.4090265079448,"Loft","Entire home/apt",2,1,1,1,"Real Bed","TV,Internet,Wireless Internet,Kitchen,Pets allowed,Elevator in building,Buzzer/wireless intercom,Heating,Washer,Essentials,translation missing: en.hosting_amenity_49,translation missing: en.hosting_amenity_50",165,NA,60,3,10,91,10,10,8,9,9,8,"strict","Host Has Profile Pic,Host Identity Verified,Is Location Exact"
5824600,"1 quiet room @ prenzlauer berg","none","2013-03-30","within an hour",100,"Berlin",52.5382945376285,13.4179830774283,"Apartment","Entire home/apt",2,1,1,2,"Real Bed","Internet,Kitchen,Buzzer/wireless intercom,Heating,Family/kid friendly,Washer,First aid kit,Essentials,Shampoo,Hair dryer,Laptop friendly workspace,translation missing: en.hosting_amenity_50",73,NA,20,2,83,95,10,10,9,9,10,9,"strict","Host Has Profile Pic,Host Identity Verified"
7876845,"One minute walk from Kollwitzplatz","none","2013-08-02","within an hour",100,"Berlin",52.536247773396,13.4199860874983,"Apartment","Private room",2,1,1,2,"Real Bed","TV,Cable TV,Internet,Wireless Internet,Kitchen,Buzzer/wireless intercom,Heating,Washer,Essentials,Hangers,Hair dryer",50,NA,NA,4,30,95,10,10,10,9,10,9,"moderate","Host Is Superhost,Host Has Profile Pic"
1728597,"Most central, room with garden","none","2012-09-26","within a day",79,"Berlin",52.5318217697063,13.416421997585,"Apartment","Entire home/apt",4,1,2,2,"Real Bed","TV,Internet,Wireless Internet,Wheelchair accessible,Kitchen,Pets allowed,Buzzer/wireless intercom,Heating,Family/kid friendly,Essentials,Shampoo,Hangers,Hair dryer,Iron,Laptop friendly workspace",85,200,45,1,54,80,9,7,9,9,10,8,"moderate","Host Has Profile Pic,Host Identity Verified"
15093851,"New Designer Artist Flat in Berlin Prenzlauerberg","none","2011-01-26","within a few hours",96,"Berlin",52.5371095642312,13.4118514067575,"Apartment","Entire home/apt",3,1,1,1,"Real Bed","TV,Internet,Wireless Internet,Air conditioning,Kitchen,Heating,Family/kid friendly,Washer,Dryer,Smoke detector,Carbon monoxide detector,Essentials,Shampoo,Hangers,Hair dryer,Iron,Laptop friendly workspace",150,500,100,5,4,95,10,10,10,10,10,9,"strict","Host Has Profile Pic,Host Identity Verified,Is Location Exact"
18303387,"Large double room in beautiful penthouse apartment","none","2013-02-15","within a few hours",100,"Berlin",52.5362493003559,13.408230739964,"Apartment","Private room",2,1,1,1,"Real Bed","TV,Wireless Internet,Kitchen,Breakfast,Heating,Family/kid friendly,Washer,Dryer,Essentials,Shampoo,Hangers,Hair dryer,Laptop friendly workspace,Private living room",48,NA,NA,2,2,90,9,9,9,9,10,9,"moderate","Host Has Profile Pic,Host Identity Verified,Is Location Exact"
7357179,"""Roof Studio"" Garden-view","none","2011-07-15","within a day",84,"Berlin",52.5401887397552,13.4089360340944,"Apartment","Private room",4,1,1,9,"Real Bed","Internet,Wireless Internet,Kitchen,Pets allowed,Buzzer/wireless intercom,Heating,Family/kid friendly,Suitable for events,Washer,Shampoo",20,NA,NA,5,1,100,10,10,10,10,10,10,"flexible","Host Has Profile Pic,Host Identity Verified,Is Location Exact"
9056714,"Moderne Wohnung mit Balkon","none","2013-05-14","",NA,"Berlin",52.5360701508197,13.4086448408913,"House","Entire home/apt",4,1,1,2,"Real Bed","Wireless Internet,Wheelchair accessible,Kitchen,Elevator in building,Heating,Family/kid friendly,Washer,Essentials",75,NA,35,3,5,100,10,9,10,10,10,10,"moderate","Host Has Profile Pic,Host Identity Verified,Is Location Exact"
14879503,"Cosy Room located in the heart of Prenzlauer Berg","none","2016-09-03","within a day",90,"Berlin",52.5384203606914,13.4098965696346,"Apartment","Private room",2,1,1,1,"Real Bed","Wireless Internet,Kitchen,Smoking allowed,Heating,Washer,Essentials,Hangers,Hair dryer,Iron,Laptop friendly workspace,translation missing: en.hosting_amenity_49,translation missing: en.hosting_amenity_50",33,NA,NA,3,3,100,10,10,10,10,10,10,"flexible","Host Has Profile Pic,Host Identity Verified,Is Location Exact"
17802926,"Prenzlauerberg/Mitte: Old building, new experience","none","2015-09-22","",NA,"Berlin",52.534133128093,13.4150843696179,"Apartment","Private room",2,1,1,1,"Real Bed","Wireless Internet,Kitchen,Heating,Washer,Shampoo,Hangers,Iron,Laptop friendly workspace,Private living room",35,NA,NA,1,0,NA,NA,NA,NA,NA,NA,NA,"flexible","Host Has Profile Pic,Host Identity Verified,Is Location Exact"
910642,"BRIGHT & SWEET HOME BÖTZOWKIEZ","none","2013-01-25","within a day",100,"Berlin",52.5309287754983,13.4341868358934,"Apartment","Entire home/apt",2,1,1,1,"Real Bed","TV,Cable TV,Internet,Wireless Internet,Kitchen,Buzzer/wireless intercom,Heating,Family/kid friendly,Washer,Fire extinguisher,Essentials,Shampoo",75,100,40,5,14,95,10,9,10,9,9,10,"moderate","Host Has Profile Pic,Host Identity Verified,Is Location Exact"
6859665,"Bright and comfy appartment","none","2015-04-17","",NA,"Berlin",52.5337727421956,13.4273866332164,"Apartment","Entire home/apt",2,1,1,1,"Real Bed","TV,Internet,Wireless Internet,Kitchen,Heating,Washer,Dryer,Shampoo",55,NA,30,14,1,100,8,10,10,10,10,10,"flexible","Host Has Profile Pic,Host Identity Verified,Is Location Exact"
17599021,"Roof Apartment in the heart of Berlin","none","2016-09-22","within a day",60,"Berlin",52.5331685987675,13.4360548454067,"Apartment","Entire home/apt",3,2,1,1,"Real Bed","TV,Wireless Internet,Kitchen,Elevator in building,Heating,Family/kid friendly,Washer,Essentials,Hangers,Hair dryer,Iron,Laptop friendly workspace,translation missing: en.hosting_amenity_49",120,NA,70,7,2,100,10,10,10,10,10,10,"strict","Host Has Profile Pic,Is Location Exact"
8699160,"Quiet and charming Prenzlauer Berg","none","2013-07-09","",NA,"Berlin",52.5332789636516,13.4333210047659,"Apartment","Entire home/apt",2,1,1,1,"Real Bed","Internet,Wireless Internet,Kitchen,Heating,Essentials",75,NA,30,4,0,NA,NA,NA,NA,NA,NA,NA,"moderate","Host Has Profile Pic,Host Identity Verified"
10649206,"cosy 3-room apartment","none","2015-08-03","",NA,"Berlin",52.5312158280354,13.4320927590914,"Apartment","Entire home/apt",2,1,2,2,"Real Bed","Internet,Wireless Internet,Kitchen,Elevator in building,Buzzer/wireless intercom,Heating,Family/kid friendly,Washer,Essentials,Hangers,Laptop friendly workspace",65,NA,NA,1,5,88,9,9,9,10,9,9,"flexible","Host Has Profile Pic,Host Identity Verified,Is Location Exact"
4529966,"Cozy flat in central Berlin","none","2014-11-08","",NA,"Berlin",52.5295510962825,13.4322809710944,"Apartment","Entire home/apt",2,1,1,2,"Real Bed","Internet,Wireless Internet,Kitchen,Buzzer/wireless intercom,Heating,Family/kid friendly,Washer,Essentials,Shampoo,Hair dryer,Laptop friendly workspace",40,500,20,3,12,97,10,10,10,10,9,10,"strict","Host Is Superhost,Host Has Profile Pic"
1341707,"85sqm family apartment Prenzl.Berg","none","2013-07-04","within an hour",100,"Berlin",52.5317931317134,13.441243681584,"Apartment","Entire home/apt",6,1,2,4,"Real Bed","TV,Internet,Wireless Internet,Kitchen,Buzzer/wireless intercom,Heating,Family/kid friendly,Washer,Safety card,Fire extinguisher,Essentials",75,NA,35,7,12,97,10,10,10,10,10,10,"strict","Host Has Profile Pic"
8589516,"schöne schnuckelige 2-Zi-Wg. Prenzl","none","2015-09-27","within a few hours",100,"Berlin",52.538188555342,13.4268939805468,"Apartment","Entire home/apt",2,1,1,1,"Real Bed","Kitchen,Heating,Essentials",60,NA,NA,2,2,90,10,10,10,10,9,8,"flexible","Host Has Profile Pic,Is Location Exact"
1329495,"Berliner Loft unique & central","none","2012-02-17","within an hour",100,"Berlin",52.5266305256303,13.4207490771173,"Loft","Entire home/apt",2,1,1,1,"Real Bed","TV,Internet,Wireless Internet,Kitchen,Elevator in building,Heating,Washer,Dryer,Smoke detector,Carbon monoxide detector,First aid kit,Essentials,Shampoo,translation missing: en.hosting_amenity_49,translation missing: en.hosting_amenity_50",99,100,35,3,24,93,9,9,9,10,9,9,"strict","Host Has Profile Pic,Host Identity Verified,Is Location Exact"
5449281,"Charming Altbau in Berlin","none","2013-02-03","within a few hours",100,"Berlin",52.5365161674883,13.4291827164262,"Apartment","Entire home/apt",2,1,1,1,"Real Bed","TV,Internet,Wireless Internet,Kitchen,Buzzer/wireless intercom,Heating,Washer,Smoke detector,Essentials,Shampoo,Hair dryer,Iron,Laptop friendly workspace,Bathtub,Game console",50,NA,15,3,3,93,10,9,10,10,9,9,"flexible","Host Has Profile Pic,Host Identity Verified"
9116672,"West-Berlin, Ku-Damm, Balkon","none","2015-10-26","within an hour",100,"Berlin",52.5015436460962,13.2998956609853,"Apartment","Entire home/apt",6,1,2,2,"Real Bed","TV,Cable TV,Internet,Wireless Internet,Kitchen,Smoking allowed,Pets allowed,Elevator in building,Buzzer/wireless intercom,Heating,Family/kid friendly,Washer,First aid kit,Essentials,Shampoo,24-hour check-in,Hangers,Hair dryer,Iron,Laptop friendly workspace",113,NA,50,2,29,96,10,10,10,10,9,10,"strict","Host Has Profile Pic,Is Location Exact,Instant Bookable"
1965142,"At the park","none","2013-10-22","within an hour",100,"Berlin",52.5067744627446,13.2867965632426,"Apartment","Private room",1,1,1,1,"Real Bed","TV,Cable TV,Wireless Internet,Kitchen,Buzzer/wireless intercom,Heating,Family/kid friendly,Washer,Essentials,Hangers,Hair dryer,Iron,Bathtub,Children’s books and toys,Children’s dinnerware",17,NA,NA,4,84,95,10,9,10,10,10,10,"strict","Host Has Profile Pic,Host Identity Verified,Is Location Exact"
15198251,"Sehr central und sonnig !","none","2016-09-24","within an hour",100,"Berlin",52.5024257492695,13.3048749764998,"Apartment","Private room",4,1,1,4,"Real Bed","TV,Internet,Wireless Internet,Kitchen,Free parking on premises,Smoking allowed,Pets allowed,Breakfast,Elevator in building,Heating,Family/kid friendly,Washer",35,NA,NA,1,14,92,9,9,10,10,9,9,"strict","Host Has Profile Pic"
16679665,"Old ""West Berlin"" at its best.","none","2015-04-03","within an hour",100,"Berlin",52.5048811469911,13.297416447212,"Apartment","Private room",6,1.5,3,4,"Real Bed","Internet,Wireless Internet,Kitchen,Free parking on premises,Elevator in building,Heating,Family/kid friendly,Fire extinguisher,Essentials,Shampoo,24-hour check-in,Hangers,Hair dryer,Iron,Laptop friendly workspace",170,NA,NA,1,2,100,10,9,10,10,10,10,"flexible","Host Has Profile Pic,Host Identity Verified"
8484404,"Cosy Flat Center of Berlin-West","none","2015-09-20","within a day",100,"Berlin",52.5074691359139,13.2989533163568,"Apartment","Entire home/apt",4,1,2,3,"Real Bed","TV,Cable TV,Internet,Kitchen,Buzzer/wireless intercom,Heating,Family/kid friendly,First aid kit,Safety card,Essentials",75,NA,30,2,19,98,10,10,10,10,10,10,"moderate","Host Has Profile Pic,Host Identity Verified,Is Location Exact"
14509929,"Zimmer+Balkon ruhig aber Zentral.","none","2016-08-11","within an hour",100,"Berlin",52.5049947774566,13.2848230129739,"Apartment","Private room",2,1,1,1,"Real Bed","TV,Internet,Wireless Internet,Kitchen,Smoking allowed,Pets live on this property,Dog(s),Buzzer/wireless intercom,Heating,Family/kid friendly,Washer,Smoke detector,First aid kit,Safety card,Fire extinguisher,Essentials,Shampoo,Lock on bedroom door,Hangers,Hair dryer,Iron",40,NA,10,3,23,93,10,9,10,10,9,9,"moderate","Host Has Profile Pic,Instant Bookable"
18399781,"best apartment in Berlin downtown","none","2017-04-21","within an hour",100,"Berlin",52.4725999096471,13.2973365345437,"House","Entire home/apt",1,1,0,1,"Real Bed","Pool,Kitchen,Washer,Dryer,translation missing: en.hosting_amenity_49",45,NA,NA,1,0,NA,NA,NA,NA,NA,NA,NA,"flexible","Host Has Profile Pic,Host Identity Verified"
2481413,"Central+quiet near Kurfürstendamm","none","2014-03-01","within a few hours",90,"Berlin",52.4995061534734,13.3233510374583,"Apartment","Entire home/apt",2,1,1,1,"Real Bed","TV,Cable TV,Internet,Wireless Internet,Kitchen,Buzzer/wireless intercom,Heating",32,NA,25,61,24,91,9,9,10,10,9,9,"moderate","Host Is Superhost,Host Has Profile Pic,Host Identity Verified,Is Location Exact"
650717,"Tasteful Bauhaus Style Berlin-City","none","2012-08-15","within a day",100,"Berlin",52.4980052504979,13.3229568627413,"Apartment","Entire home/apt",5,2,3,4,"Real Bed","TV,Cable TV,Internet,Wireless Internet,Kitchen,Indoor fireplace,Buzzer/wireless intercom,Heating,Washer,Dryer,Smoke detector,First aid kit,Safety card,Fire extinguisher,Essentials,Shampoo,Hangers,Hair dryer,Iron,Laptop friendly workspace",NA,NA,300,2,0,NA,NA,NA,NA,NA,NA,NA,"moderate","Host Has Profile Pic,Is Location Exact,Require Guest Profile Picture"
14854731,"Charming. Cosy. Central Berlin/City West :))","none","2015-03-01","within an hour",100,"Berlin",52.4996159036094,13.3246413832286,"Apartment","Entire home/apt",4,1,1,1,"Real Bed","TV,Internet,Wireless Internet,Kitchen,Indoor fireplace,Buzzer/wireless intercom,Heating,Family/kid friendly,Washer,Essentials,Shampoo,Lock on bedroom door,Hair dryer,Laptop friendly workspace,translation missing: en.hosting_amenity_50,Private entrance",89,NA,29,2,4,95,10,10,10,10,10,10,"moderate","Host Has Profile Pic,Host Identity Verified,Is Location Exact,Instant Bookable"
8360878,"Bright Apt right in City Center","none","2014-06-06","within an hour",100,"Berlin",52.4995681696014,13.3359900791913,"Apartment","Entire home/apt",4,1,1,3,"Real Bed","TV,Internet,Wireless Internet,Air conditioning,Kitchen,Free parking on premises,Heating,Washer,Essentials,Shampoo,Hangers,Hair dryer,Laptop friendly workspace,translation missing: en.hosting_amenity_49,translation missing: en.hosting_amenity_50",91,300,NA,5,34,90,9,9,10,9,10,9,"moderate","Host Has Profile Pic,Host Identity Verified,Is Location Exact"
4424125,"1Room Beautiful Flat with Balcony","none","2014-10-18","within a day",90,"Berlin",52.4975708437944,13.3357195257051,"Apartment","Entire home/apt",2,1,1,1,"Real Bed","TV,Cable TV,Internet,Wireless Internet,Kitchen,Elevator in building,Buzzer/wireless intercom,Heating,Family/kid friendly,Smoke detector,First aid kit,Safety card,Essentials,Shampoo,24-hour check-in,Hangers,Hair dryer,Iron,Laptop friendly workspace",75,150,30,2,58,98,10,10,10,10,9,10,"strict","Host Is Superhost,Host Has Profile Pic"
13648211,"CHIC & BASIC","none","2011-12-08","within a day",80,"Berlin",52.4965392195619,13.33255790968,"Apartment","Entire home/apt",2,1,0,1,"Real Bed","TV,Wireless Internet,Kitchen,Pets allowed,Elevator in building,Heating,Family/kid friendly,Washer,Shampoo,Hair dryer,Iron",45,NA,50,3,15,93,9,10,10,9,9,10,"flexible","Host Has Profile Pic,Host Identity Verified,Is Location Exact"
