"ID","Name","Experiences.Offered","Host.Since","Host.Response.Time","Host.Response.Rate","City","Latitude","Longitude","Property.Type","Room.Type","Accommodates","Bathrooms","Bedrooms","Beds","Bed.Type","Amenities","Price","Security.Deposit","Cleaning.Fee","Minimum.Nights","Number.of.Reviews","Review.Scores.Rating","Review.Scores.Accuracy","Review.Scores.Cleanliness","Review.Scores.Checkin","Review.Scores.Communication","Review.Scores.Location","Review.Scores.Value","Cancellation.Policy","Features"
13306958,"Moore Park Maisonette","none","2016-06-01","",NA,"London",51.4793986027457,-0.19287475372301,"Condominium","Entire home/apt",5,1,2,2,"Real Bed","Wireless Internet,Kitchen,Heating,Washer,Essentials,Hangers,translation missing: en.hosting_amenity_49,translation missing: en.hosting_amenity_50",80,150,25,1,0,NA,NA,NA,NA,NA,NA,NA,"flexible","Host Has Profile Pic,Is Location Exact"
5570655,"Fulham Garden Flat","none","2015-03-06","within a day",100,"London",51.4720866952786,-0.206380252204483,"Apartment","Entire home/apt",3,1,1,1,"Real Bed","TV,Cable TV,Internet,Wireless Internet,Kitchen,Pets allowed,Heating,Family/kid friendly,Washer,Dryer,Smoke detector,Essentials,Hangers,Hair dryer,Iron,Laptop friendly workspace",120,NA,30,2,14,96,10,9,10,10,10,9,"flexible","Host Has Profile Pic,Host Identity Verified,Is Location Exact"
7668448,"London Studio Shepherds Bush","none","2013-07-11","",NA,"London",51.5018311728047,-0.221650068314996,"Apartment","Entire home/apt",2,1,0,1,"Real Bed","Kitchen,Elevator in building,Heating,Washer,Smoke detector,Carbon monoxide detector,Safety card,Fire extinguisher,Essentials",99,400,100,3,1,100,10,10,10,10,10,10,"strict","Host Is Superhost,Host Has Profile Pic"
13958516,"Conveniently located, bright & cosy studio","none","2016-06-01","",NA,"London",51.4844962301066,-0.206113012460394,"Apartment","Entire home/apt",2,1,0,1,"Real Bed","Wireless Internet,Kitchen,Washer,Smoke detector,Carbon monoxide detector,Essentials,Hangers,Laptop friendly workspace,translation missing: en.hosting_amenity_49,translation missing: en.hosting_amenity_50",75,NA,10,1,1,80,10,10,10,10,8,8,"moderate","Host Has Profile Pic,Is Location Exact"
11632615,"Superb Modern House West of Chelsea","none","2014-06-05","within an hour",100,"London",51.4733868772241,-0.193706286583519,"House","Entire home/apt",6,4,3,3,"Real Bed","TV,Cable TV,Internet,Wireless Internet,Kitchen,Heating,Family/kid friendly,Washer,Dryer,Smoke detector,Carbon monoxide detector,Fire extinguisher,Essentials,Shampoo,Hangers,Hair dryer,Iron,Laptop friendly workspace,translation missing: en.hosting_amenity_50,Private entrance",350,NA,60,3,3,100,10,9,10,10,10,10,"strict","Host Has Profile Pic,Host Identity Verified,Is Location Exact"
7270274,"The Garden Flat","none","2015-07-10","within a day",100,"London",51.5171493364163,-0.225529591006954,"Apartment","Entire home/apt",2,1,1,1,"Real Bed","TV,Wireless Internet,Kitchen,Buzzer/wireless intercom,Heating,Family/kid friendly,Washer,Dryer,Smoke detector,Fire extinguisher,Shampoo",180,NA,80,4,4,100,10,10,10,10,10,10,"strict","Host Has Profile Pic,Host Identity Verified,Is Location Exact"
6876434,"The spacious room in the apartment","none","2015-06-17","within an hour",100,"London",51.4893697184632,-0.220000164727205,"Bed & Breakfast","Private room",2,1,1,1,"Real Bed","TV,Cable TV,Internet,Wireless Internet,Kitchen,Breakfast,Heating,Washer,Dryer,Smoke detector,First aid kit,Fire extinguisher,Essentials,Shampoo,translation missing: en.hosting_amenity_49,translation missing: en.hosting_amenity_50",52,NA,10,2,39,94,9,10,10,10,9,9,"flexible","Host Has Profile Pic,Is Location Exact,Instant Bookable"
4123151,"Large double room in a contemporary London flat.","none","2014-09-16","",NA,"London",51.4679259868404,-0.186637642570162,"Apartment","Private room",2,1,1,1,"Real Bed","Internet,Wireless Internet,Kitchen,Gym,Elevator in building,Heating,Family/kid friendly,Washer,Dryer,Smoke detector,Essentials,Shampoo,Hangers,Iron,translation missing: en.hosting_amenity_50",90,NA,33,1,0,NA,NA,NA,NA,NA,NA,NA,"flexible","Host Has Profile Pic,Host Identity Verified"
450847,"cute stylish flat near Notting Hill","none","2011-11-08","within an hour",100,"London",51.5131214960545,-0.225661980540156,"Apartment","Private room",1,1,1,1,"Real Bed","TV,Internet,Wireless Internet,Kitchen,Pets live on this property,Cat(s),Heating,Washer,Shampoo,translation missing: en.hosting_amenity_49,translation missing: en.hosting_amenity_50",48,NA,NA,3,60,98,10,10,10,10,10,10,"moderate","Host Has Profile Pic,Is Location Exact"
16834704,"EN SUITE IN NEW HOUSE IN ZONE 2","none","2014-12-04","within a few hours",100,"London",51.5150787776645,-0.234663389589957,"House","Private room",2,3,1,1,"Real Bed","TV,Wireless Internet,Kitchen,Heating,Washer,Dryer,Smoke detector,Carbon monoxide detector,First aid kit,Fire extinguisher,Essentials,Lock on bedroom door,Laptop friendly workspace,translation missing: en.hosting_amenity_49,translation missing: en.hosting_amenity_50",49,NA,NA,2,0,NA,NA,NA,NA,NA,NA,NA,"flexible","Host Has Profile Pic,Host Identity Verified,Is Location Exact"
14213017,"Large double room in quiet street","none","2015-07-07","within a few hours",88,"London",51.5017026833169,-0.222811777925968,"House","Private room",2,2,1,1,"Real Bed","Wireless Internet,Kitchen,Heating,Washer,Smoke detector,Fire extinguisher,Essentials,Lock on bedroom door,Hangers,Iron,Laptop friendly workspace,translation missing: en.hosting_amenity_49,translation missing: en.hosting_amenity_50,Private entrance",40,NA,NA,2,4,100,10,9,10,10,10,10,"moderate","Host Has Profile Pic,Host Identity Verified,Is Location Exact,Instant Bookable"
7526292,"Kensington Olympia penthouse with 70m2 terrace","none","2013-04-15","",NA,"London",51.4924679297554,-0.203904171192161,"Apartment","Entire home/apt",4,1,2,2,"Real Bed","TV,Cable TV,Internet,Wireless Internet,Kitchen,Buzzer/wireless intercom,Heating,Washer,Smoke detector,Carbon monoxide detector,Essentials,Shampoo,Hangers,Hair dryer,Iron,Laptop friendly workspace,translation missing: en.hosting_amenity_49,translation missing: en.hosting_amenity_50",99,150,45,5,23,95,10,10,10,10,10,9,"strict","Host Has Profile Pic,Host Identity Verified"
13161978,"Modern 2BR Apt in West London","none","2012-04-12","within an hour",99,"London",51.5031569741405,-0.250742229996241,"Apartment","Entire home/apt",4,1,2,4,"Real Bed","TV,Internet,Wireless Internet,Kitchen,Free parking on premises,Buzzer/wireless intercom,Heating,Family/kid friendly,Washer,Smoke detector,Essentials,Shampoo,24-hour check-in,Hangers,Hair dryer,Iron",165,200,95,2,3,73,8,7,10,9,8,7,"strict","Host Has Profile Pic,Host Identity Verified,Is Location Exact"
3853766,"Central London 2 Bedroom Apartment","none","2013-08-22","within an hour",100,"London",51.5103456196343,-0.232298325838734,"Apartment","Entire home/apt",8,1.5,2,7,"Real Bed","TV,Cable TV,Internet,Wireless Internet,Wheelchair accessible,Kitchen,Elevator in building,Buzzer/wireless intercom,Heating,Family/kid friendly,Washer,Dryer,Smoke detector,First aid kit,Safety card,Fire extinguisher,Essentials,24-hour check-in,Hangers,Hair dryer,Iron,Laptop friendly workspace",165,150,55,1,13,86,9,10,10,10,8,9,"strict","Host Has Profile Pic,Host Identity Verified,Is Location Exact"
16433181,"1 bedroom studio big separate room","none","2015-04-25","a few days or more",0,"London",51.4964698745061,-0.234621551015833,"Apartment","Private room",2,1,1,1,"Real Bed","TV,Internet,Wireless Internet,Air conditioning,Kitchen,Hot tub,Heating,Family/kid friendly,Washer,Smoke detector,Essentials,Shampoo,Iron",90,250,20,1,0,NA,NA,NA,NA,NA,NA,NA,"flexible","Host Has Profile Pic"
15907786,"Charming 1-Bed Mews (Converted Stable) in SW6","none","2013-05-12","within an hour",100,"London",51.48144863923,-0.206852415228776,"Apartment","Entire home/apt",2,1,1,1,"Real Bed","Wireless Internet,Kitchen,Heating,Washer,Dryer,Smoke detector,Essentials,Shampoo,24-hour check-in,Hangers,Hair dryer,Iron,Laptop friendly workspace,translation missing: en.hosting_amenity_49,translation missing: en.hosting_amenity_50,Self Check-In,Lockbox",60,85,51,2,3,93,10,9,9,10,10,10,"moderate","Host Has Profile Pic,Host Identity Verified"
14463961,"Stunning Interior Designed 4bed Hse nr tube","none","2015-02-11","within a few hours",99,"London",51.478490371437,-0.192170748355603,"Apartment","Entire home/apt",7,3,4,4,"Real Bed","TV,Cable TV,Internet,Wireless Internet,Kitchen,Free parking on premises,Breakfast,Buzzer/wireless intercom,Heating,Family/kid friendly,Washer,Dryer,Smoke detector,Essentials,Shampoo,24-hour check-in,Hangers,Hair dryer,Iron,Laptop friendly workspace,Private entrance",450,400,100,4,2,100,10,10,10,10,10,10,"moderate","Host Has Profile Pic,Host Identity Verified,Is Location Exact"
15641084,"Silvie Bnb 2","none","2016-10-23","within a few hours",93,"London",51.4903538302332,-0.214959640976358,"House","Private room",2,1,1,1,"Real Bed","TV,Wireless Internet,Kitchen,Free parking on premises,Breakfast,Heating,Smoke detector,First aid kit,Fire extinguisher,Essentials,Shampoo,Lock on bedroom door,Hangers,Iron,Laptop friendly workspace,translation missing: en.hosting_amenity_49,translation missing: en.hosting_amenity_50",45,NA,NA,1,0,NA,NA,NA,NA,NA,NA,NA,"flexible","Host Has Profile Pic,Is Location Exact"
852486,"Cosy medium sized room in W12","none","2012-03-18","within a few hours",100,"London",51.5076308275976,-0.226731694578564,"House","Private room",1,1,1,1,"Real Bed","Wireless Internet,Kitchen,Pets live on this property,Cat(s),Heating,Washer,Dryer,Smoke detector,Lock on bedroom door,Hair dryer,Iron,Laptop friendly workspace,translation missing: en.hosting_amenity_49,translation missing: en.hosting_amenity_50",36,NA,NA,1,74,91,10,9,10,10,9,9,"strict","Host Has Profile Pic,Host Identity Verified,Is Location Exact"
14589222,"Luxury Room in the heart of London","none","2016-03-07","within a few hours",100,"London",51.4780877053661,-0.206545398248506,"House","Private room",2,1,1,1,"Real Bed","TV,Cable TV,Internet,Wireless Internet,Air conditioning,Breakfast,Indoor fireplace,Heating,Smoke detector,Carbon monoxide detector,First aid kit,Essentials,Shampoo,Lock on bedroom door,Hangers,Hair dryer,Iron,translation missing: en.hosting_amenity_49,translation missing: en.hosting_amenity_50",40,300,30,1,4,100,10,10,10,9,10,10,"moderate","Host Has Profile Pic"
17341631,"Double bedroom in Fulham","none","2014-11-03","within an hour",100,"London",51.4728889731693,-0.203600900555387,"Apartment","Private room",2,1,2,1,"Real Bed","TV,Internet,Wireless Internet,Kitchen,Smoking allowed,Pets allowed,Heating,Family/kid friendly,Washer,Smoke detector,Essentials,Shampoo,Hangers,Hair dryer,Iron,translation missing: en.hosting_amenity_50",76,NA,40,1,0,NA,NA,NA,NA,NA,NA,NA,"moderate","Host Has Profile Pic"
15895478,"Large en suite bedroom in stunning 4bed house","none","2015-07-29","",NA,"London",51.4997523412602,-0.235519099046429,"House","Private room",2,2,1,1,"Real Bed","TV,Wireless Internet,Kitchen,Smoking allowed,Heating,Smoke detector,Carbon monoxide detector,Essentials,Shampoo,Hangers,Hair dryer,Iron,Laptop friendly workspace,translation missing: en.hosting_amenity_49,translation missing: en.hosting_amenity_50",70,NA,10,2,1,NA,NA,NA,NA,NA,NA,NA,"flexible","Host Has Profile Pic,Is Location Exact"
10521191,"DOUBLE ROOM IN NICE FRIENDLY HOUSE","none","2013-03-18","",NA,"London",51.485224686808,-0.223232442877479,"Apartment","Private room",1,2,1,1,"Real Bed","TV,Internet,Wireless Internet,Kitchen,Heating,Washer,Dryer,Smoke detector,Carbon monoxide detector,Essentials,Iron,Laptop friendly workspace",29,100,NA,1,0,NA,NA,NA,NA,NA,NA,NA,"flexible","Host Has Profile Pic,Host Identity Verified,Is Location Exact"
4088703,"COSY SMALL DOUBLE BEDROOM","none","2012-09-09","within an hour",100,"London",51.4708392548741,-0.186722611701839,"Apartment","Private room",2,1,1,1,"Real Bed","TV,Cable TV,Internet,Wireless Internet,Kitchen,Hot tub,Buzzer/wireless intercom,Heating,Family/kid friendly,Washer,First aid kit,Essentials,Shampoo,Hangers,Hair dryer,Iron",42,NA,NA,1,95,92,9,9,10,10,9,9,"strict","Host Has Profile Pic,Host Identity Verified,Is Location Exact"
12734468,"large one bed flat, Shepherds Bush, London W14","none","2016-04-27","within a day",70,"London",51.5019960550074,-0.216579583320124,"Apartment","Entire home/apt",2,1,1,1,"Real Bed","TV,Wireless Internet,Kitchen,Buzzer/wireless intercom,Heating,Family/kid friendly,Washer,Dryer,Smoke detector,Carbon monoxide detector,First aid kit,Safety card,Fire extinguisher,Essentials,Shampoo,Hangers,Hair dryer,Iron,Laptop friendly workspace",83,NA,NA,1,10,93,10,10,10,10,10,10,"flexible","Host Has Profile Pic,Host Identity Verified,Is Location Exact"
544824,"A Designer Lux Apartment Super Location Central","none","2011-08-10","within an hour",100,"London",51.4962508426452,-0.229035815525913,"Boutique hotel","Private room",4,1,1,2,"Real Bed","TV,Internet,Wireless Internet,Kitchen,Buzzer/wireless intercom,Heating,Washer,Dryer,Smoke detector,Carbon monoxide detector,Safety card,Essentials,Shampoo,24-hour check-in,Hangers,Hair dryer,Iron,Laptop friendly workspace,translation missing: en.hosting_amenity_49,translation missing: en.hosting_amenity_50,Private entrance",100,150,40,1,194,92,9,10,9,9,10,9,"strict","Host Has Profile Pic,Host Identity Verified,Instant Bookable,Require Guest Phone Verification"
13781112,"Fantastic double room in modern house","none","2016-03-23","within an hour",100,"London",51.4713370330188,-0.187366034134783,"House","Private room",2,1,1,1,"Real Bed","Internet,Wireless Internet,Kitchen,Heating,Family/kid friendly,Washer,Smoke detector,Carbon monoxide detector,First aid kit,Safety card,Fire extinguisher,Essentials,Shampoo,Hangers,Hair dryer,Iron,Laptop friendly workspace",58,100,20,2,7,97,10,10,10,10,10,10,"moderate","Host Has Profile Pic,Host Identity Verified,Is Location Exact,Instant Bookable"
9527125,"Cosy Victorian 1 bed apartment","none","2015-11-18","within an hour",99,"London",51.5033618241661,-0.233674344820323,"Apartment","Entire home/apt",3,1,1,2,"Real Bed","Internet,Wireless Internet,Kitchen,Free parking on premises,Heating,Essentials,Shampoo,Hangers,Hair dryer,Iron",100,200,35,2,35,94,9,10,10,10,9,10,"strict","Host Has Profile Pic,Is Location Exact,Instant Bookable"
16690354,"Family room with 2doublebeds, tv","none","2017-01-08","within an hour",97,"London",51.5007081789664,-0.230522264002391,"House","Private room",4,3,1,2,"Real Bed","TV,Internet,Wireless Internet,Kitchen,Free parking on premises,Smoking allowed,Heating,Family/kid friendly,Essentials,Hangers,Iron,translation missing: en.hosting_amenity_50",85,NA,NA,1,6,80,9,10,10,8,9,8,"flexible","Host Has Profile Pic,Instant Bookable"
16658526,"★ Lovely Apartment in Fulham ★","none","2014-09-23","within a day",96,"London",51.4750871108624,-0.206167930801211,"Apartment","Entire home/apt",6,1.5,2,3,"Real Bed","TV,Internet,Wireless Internet,Kitchen,Heating,Family/kid friendly,Washer,Dryer,Smoke detector,Carbon monoxide detector,Essentials,Shampoo,24-hour check-in,Hangers,Hair dryer,Iron,Laptop friendly workspace",130,81,45,1,0,NA,NA,NA,NA,NA,NA,NA,"flexible","Host Has Profile Pic,Host Identity Verified"
6861039,"Airy and bright flat in Zone 2","none","2011-11-08","",NA,"London",51.530205564917,-0.234296515706149,"House","Entire home/apt",4,1,1,2,"Real Bed","TV,Internet,Wireless Internet,Kitchen,Smoking allowed,Buzzer/wireless intercom,Heating,Family/kid friendly,Washer,Dryer,Smoke detector,First aid kit,Essentials,Shampoo",70,NA,NA,14,0,NA,NA,NA,NA,NA,NA,NA,"strict","Host Has Profile Pic,Is Location Exact"
7742194,"Cosy Double studio in Zone 2 Hammersmith (8)","none","2010-08-29","within an hour",80,"London",51.4933113592082,-0.229154108557079,"Apartment","Entire home/apt",2,1,0,1,"Real Bed","TV,Internet,Wireless Internet,Air conditioning,Kitchen,Doorman,Buzzer/wireless intercom,Heating,Family/kid friendly,Washer,Dryer,Smoke detector,Carbon monoxide detector,First aid kit,Safety card,Fire extinguisher,Essentials,Shampoo,translation missing: en.hosting_amenity_49",77,NA,NA,1,7,93,9,10,10,10,10,10,"strict","Host Has Profile Pic,Is Location Exact,Instant Bookable"
16523569,"Two bedroomed flat in Sw6","none","2016-10-12","within an hour",100,"London",51.4723875197126,-0.198347311916647,"Apartment","Entire home/apt",6,1,3,3,"Real Bed","TV,Wireless Internet,Air conditioning,Kitchen,Breakfast,Heating,Family/kid friendly,Washer,Dryer,Smoke detector,Essentials,Shampoo,Lock on bedroom door,Hangers,Hair dryer,Iron,Laptop friendly workspace,translation missing: en.hosting_amenity_50,Private entrance",200,NA,NA,3,0,NA,NA,NA,NA,NA,NA,NA,"moderate","Host Has Profile Pic,Host Identity Verified,Is Location Exact"
16913431,"Private duble room with tv","none","2017-01-08","within an hour",97,"London",51.49880768113,-0.228998504516087,"House","Private room",2,3,1,1,"Real Bed","TV,Internet,Wireless Internet,Kitchen,Free parking on premises,Smoking allowed,Heating,Family/kid friendly,Washer,Essentials,Iron,translation missing: en.hosting_amenity_50,Private living room,Private entrance",60,NA,NA,1,5,92,9,10,10,9,9,9,"flexible","Host Has Profile Pic"
17433729,"2 double bedroom flat in Parsons Green","none","2015-06-09","within an hour",87,"London",51.4769730421442,-0.205024597354358,"Apartment","Entire home/apt",4,1,2,2,"Real Bed","TV,Kitchen,Pets allowed,Buzzer/wireless intercom,Heating,Family/kid friendly,Washer,Dryer,Smoke detector,Carbon monoxide detector,Hangers,Private entrance",99,100,NA,1,0,NA,NA,NA,NA,NA,NA,NA,"moderate","Host Has Profile Pic,Is Location Exact,Instant Bookable"
3671248,"West London Garden Flat near Notting Hill","none","2012-06-08","within a few hours",100,"London",51.5042571187796,-0.218644892434604,"Apartment","Entire home/apt",3,2,2,2,"Real Bed","Wireless Internet,Kitchen,Family/kid friendly,Smoke detector,Carbon monoxide detector,Fire extinguisher,Essentials,Laptop friendly workspace",120,300,50,3,44,93,9,10,10,10,9,9,"strict","Host Has Profile Pic,Host Identity Verified,Is Location Exact"
9037515,"Split Level Studio-clean-South Kens","none","2015-03-31","within an hour",100,"London",51.4955364541987,-0.177368442923646,"Other","Entire home/apt",4,1,0,2,"Real Bed","TV,Wireless Internet,Kitchen,Doorman,Buzzer/wireless intercom,Heating,Family/kid friendly,Dryer,Smoke detector,Carbon monoxide detector,Fire extinguisher,Essentials,Shampoo,Hangers",100,700,80,3,5,80,9,8,9,9,10,8,"strict","Host Has Profile Pic,Host Identity Verified,Is Location Exact,Instant Bookable"
15726550,"1 bedroom flat in South Kensington/Chelsea","none","2014-08-24","within a day",100,"London",51.4929496665058,-0.171462850569894,"Apartment","Entire home/apt",2,1,1,1,"Real Bed","TV,Wireless Internet,Kitchen,Heating,Family/kid friendly,Washer,Dryer,Smoke detector,Essentials,Hair dryer,Iron",104,NA,10,2,4,100,10,10,10,10,10,10,"moderate","Host Has Profile Pic,Host Identity Verified"
14242686,"Double Room in Notting Hill (WiFi, Gym, Breakfast)","none","2016-04-20","within an hour",90,"London",51.5101480838341,-0.200325798661908,"Apartment","Private room",2,1,1,1,"Real Bed","Wireless Internet,Gym,Breakfast,Elevator in building,Heating,Washer,Dryer,Smoke detector,First aid kit,Safety card,Fire extinguisher,Essentials,Lock on bedroom door,Hangers,Iron,Laptop friendly workspace,translation missing: en.hosting_amenity_49,translation missing: en.hosting_amenity_50",42,NA,NA,1,0,NA,NA,NA,NA,NA,NA,NA,"flexible","Host Has Profile Pic,Is Location Exact"
4571626,"Gorgeous 2BD house & garden in W10","none","2012-12-31","within an hour",100,"London",51.5184595517271,-0.223321113977735,"House","Entire home/apt",4,1,2,3,"Real Bed","TV,Cable TV,Internet,Wireless Internet,Kitchen,Pets allowed,Heating,Family/kid friendly,Washer,Smoke detector,First aid kit,Fire extinguisher",120,NA,NA,2,4,100,10,9,10,10,10,9,"flexible","Host Has Profile Pic,Is Location Exact"
7592855,"Amazing Flat in South Kensington","none","2015-01-27","",NA,"London",51.491572911506,-0.176468512628891,"Apartment","Shared room",4,1,1,2,"Real Bed","TV,Cable TV,Internet,Wireless Internet,Wheelchair accessible,Kitchen,Elevator in building,Indoor fireplace,Buzzer/wireless intercom,Heating,Washer,Dryer,Smoke detector,First aid kit,Fire extinguisher,Essentials,Shampoo",160,600,40,1,0,NA,NA,NA,NA,NA,NA,NA,"strict","Host Has Profile Pic,Host Identity Verified,Is Location Exact"
9295280,"Sunny Double Bedroom and Loft Study","none","2015-11-05","within a few hours",100,"London",51.4859728131964,-0.1838431873169,"House","Private room",1,1,1,1,"Real Bed","TV,Cable TV,Internet,Wireless Internet,Kitchen,Pets live on this property,Cat(s),Buzzer/wireless intercom,Heating,Washer,Dryer,Smoke detector,Carbon monoxide detector,Essentials,Hair dryer,Laptop friendly workspace,translation missing: en.hosting_amenity_49,translation missing: en.hosting_amenity_50",70,NA,60,2,2,100,10,10,10,10,10,10,"strict","Host Has Profile Pic,Is Location Exact"
4058050,"Big double room near Portobello Rd","none","2014-09-07","within a day",100,"London",51.5161726237109,-0.216977727251436,"Apartment","Private room",2,1,1,1,"Real Bed","TV,Cable TV,Internet,Wireless Internet,Heating,Family/kid friendly,Essentials",65,NA,15,1,5,100,10,10,10,10,10,10,"flexible","Host Has Profile Pic"
17528138,"1 Bedroom Chelsea&Kensington Apartment","none","2014-07-08","within an hour",100,"London",51.4936878288028,-0.164744484667588,"Apartment","Entire home/apt",3,1,1,2,"Real Bed","TV,Wireless Internet,Kitchen,Elevator in building,Hot tub,Heating,Family/kid friendly,Washer,Dryer,Smoke detector,Carbon monoxide detector,Fire extinguisher,Essentials,Shampoo,Hangers,Hair dryer,Iron",85,150,20,1,0,NA,NA,NA,NA,NA,NA,NA,"moderate","Host Has Profile Pic,Host Identity Verified,Instant Bookable"
16612221,"Charming Studio in Kensington","none","2011-12-08","within an hour",100,"London",51.4875026019859,-0.174956034175907,"House","Entire home/apt",2,1,0,1,"Real Bed","Internet,Wireless Internet,Kitchen,Heating,Smoke detector,Carbon monoxide detector,Essentials,Shampoo,24-hour check-in,Hangers,Hair dryer,Iron,Laptop friendly workspace,Private entrance",110,85,51,1,8,93,10,10,10,9,9,9,"moderate","Host Has Profile Pic,Host Identity Verified,Is Location Exact"
17524988,"2 Bedroom Apartment","none","2017-02-11","within a day",78,"London",51.4834738570513,-0.186645422600243,"Apartment","Entire home/apt",6,2,2,3,"Real Bed","TV,Wireless Internet,Air conditioning,Kitchen,Free parking on premises,Pets allowed,Indoor fireplace,Heating,Family/kid friendly,Washer,Dryer,Smoke detector,Carbon monoxide detector,First aid kit,Safety card,Fire extinguisher,Essentials,Shampoo,Lock on bedroom door,Hangers,Hair dryer,Iron,Laptop friendly workspace,Private entrance",135,NA,NA,7,0,NA,NA,NA,NA,NA,NA,NA,"strict","Host Has Profile Pic,Host Identity Verified"
10149590,"*Special Offer* Designed Modern Kensington Flat","none","2015-12-21","within an hour",96,"London",51.4930457236206,-0.190745156944804,"Apartment","Entire home/apt",4,1,0,2,"Real Bed","TV,Internet,Wireless Internet,Kitchen,Buzzer/wireless intercom,Heating,Family/kid friendly,Washer,Dryer,Smoke detector,Essentials,Shampoo,24-hour check-in,Hangers,Hair dryer,Iron,Laptop friendly workspace",110,400,35,1,1,80,10,10,10,10,10,10,"strict","Host Has Profile Pic,Host Identity Verified,Instant Bookable"
16059965,"Kensington Soul","none","2012-04-12","within an hour",99,"London",51.4964895636474,-0.197008879426259,"Apartment","Entire home/apt",6,1.5,2,2,"Real Bed","TV,Wireless Internet,Kitchen,Heating,Family/kid friendly,Washer,Smoke detector,Essentials,Shampoo,Hangers,Hair dryer,Iron,Laptop friendly workspace,Private entrance",215,500,95,2,5,92,10,10,10,10,9,8,"strict","Host Has Profile Pic,Host Identity Verified,Is Location Exact,Instant Bookable"
1307593,"Bright apartment Notting Hill","none","2011-04-06","within a few hours",100,"London",51.5186486136439,-0.210353396115596,"Apartment","Entire home/apt",2,1,1,1,"Real Bed","TV,Internet,Wireless Internet,Kitchen,Buzzer/wireless intercom,Heating,Washer,Essentials",78,300,30,4,12,95,10,9,10,10,10,9,"strict","Host Has Profile Pic,Is Location Exact"
10296630,"Earls Court","none","2015-09-04","within a day",72,"London",51.4967847246229,-0.196275726842319,"Apartment","Entire home/apt",2,1,1,1,"Real Bed","Internet,Wireless Internet,Kitchen,Heating,Essentials,24-hour check-in",65,NA,20,3,4,90,9,8,10,10,10,9,"flexible","Host Has Profile Pic,Is Location Exact"
16079251,"Beautiful, Stylish 2BR in the Heart of Chelsea","none","2016-11-17","within an hour",100,"London",51.4869394818001,-0.16150714771086,"Apartment","Entire home/apt",4,1,2,3,"Real Bed","TV,Cable TV,Internet,Wireless Internet,Kitchen,Buzzer/wireless intercom,Heating,Family/kid friendly,Washer,Dryer,Smoke detector,Essentials,Shampoo,24-hour check-in,Hangers,Hair dryer,Iron,Laptop friendly workspace",130,350,55,3,1,100,8,10,10,10,10,8,"moderate","Host Has Profile Pic,Is Location Exact,Instant Bookable"
7571410,"King Bedroom in South Kensington!","none","2015-07-27","",NA,"London",51.4917263359146,-0.189271483650434,"Apartment","Private room",2,1,1,1,"Real Bed","TV,Cable TV,Internet,Wireless Internet,Kitchen,Buzzer/wireless intercom,Heating,Washer,Dryer,Smoke detector,Essentials,Shampoo",70,200,20,7,1,100,8,10,10,10,8,8,"strict","Host Has Profile Pic,Is Location Exact"
661179,"Nice 2 bedroom apartment Kensington","none","2012-06-14","within an hour",100,"London",51.4979175262033,-0.208001565103106,"Apartment","Entire home/apt",6,1,2,5,"Real Bed","Cable TV,Wireless Internet,Wheelchair accessible,Kitchen,Heating,Family/kid friendly,Washer,Dryer",207,225,NA,3,2,90,10,9,7,9,7,9,"strict","Host Has Profile Pic,Host Identity Verified,Is Location Exact"
15881029,"Charming flat in Notting Hill (PineHurst)","none","2012-02-14","within a day",90,"London",51.5140830520088,-0.200784830799788,"Apartment","Entire home/apt",3,1,1,1,"Real Bed","TV,Wireless Internet,Kitchen,Elevator in building,Heating,Family/kid friendly,Washer,Dryer,Essentials,Shampoo,Hangers,Hair dryer,Iron",90,500,60,3,2,80,9,10,10,10,10,7,"strict","Host Has Profile Pic,Host Identity Verified,Is Location Exact"
7492810,"Modern & Spacious 3BR in Cadogan SQ","none","2014-08-21","within an hour",100,"London",51.4956783665552,-0.15837342909299,"Apartment","Entire home/apt",5,2.5,3,3,"Real Bed","TV,Cable TV,Internet,Wireless Internet,Kitchen,Buzzer/wireless intercom,Heating,Family/kid friendly,Washer,Smoke detector,Carbon monoxide detector,First aid kit,Fire extinguisher,Essentials,Shampoo,24-hour check-in,Hangers,Hair dryer,Iron,Private entrance",299,180,75,3,13,95,9,10,10,10,10,10,"strict","Host Is Superhost,Host Has Profile Pic,Host Identity Verified,Is Location Exact"
1712506,"Modern 2 bedroom & 2bath in Chelsea","none","2013-09-24","within a few hours",100,"London",51.4868036908279,-0.180267871678199,"Apartment","Entire home/apt",4,2,2,2,"Real Bed","TV,Cable TV,Internet,Wireless Internet,Wheelchair accessible,Kitchen,Doorman,Elevator in building,Buzzer/wireless intercom,Heating,Family/kid friendly,Washer,Dryer,Smoke detector,Essentials",135,NA,30,2,43,97,10,9,10,10,10,10,"strict","Host Is Superhost,Host Has Profile Pic,Is Location Exact"
17326074,"spacious studio in the heart of Cromwell Road","none","2017-02-18","within an hour",100,"London",51.4944634328373,-0.192060064163956,"Apartment","Entire home/apt",2,1,0,1,"Real Bed","TV,Wireless Internet,Kitchen,Smoking allowed,Doorman,Elevator in building,Buzzer/wireless intercom,Heating,Washer,Essentials,Shampoo,Hangers,Self Check-In,Doorman Entry",85,200,10,1,1,100,10,10,10,10,10,10,"flexible","Host Has Profile Pic,Host Identity Verified,Is Location Exact"
3300170,"At Knightsbridge sleep 1 to 6 LOCATION - LOCATION!","family","2014-05-20","within a day",90,"London",51.4979075797941,-0.164747925376987,"Apartment","Entire home/apt",6,1,2,4,"Real Bed","TV,Cable TV,Internet,Wireless Internet,Kitchen,Pets allowed,Buzzer/wireless intercom,Heating,Family/kid friendly,Washer,Essentials",159,NA,NA,2,30,90,9,9,10,10,9,9,"strict","Host Has Profile Pic,Host Identity Verified"
16994162,"Large Luxurious Apartment","none","2017-01-01","within an hour",100,"London",51.4987186122994,-0.16584567951256,"Apartment","Entire home/apt",8,2,3,5,"Real Bed","TV,Internet,Wireless Internet,Wheelchair accessible,Kitchen,Elevator in building,Hot tub,Heating,Family/kid friendly,Washer,Dryer,Smoke detector,Carbon monoxide detector,Essentials,Shampoo,Hangers,Hair dryer,Iron,Laptop friendly workspace",450,500,85,2,2,100,10,10,10,10,10,10,"strict","Host Has Profile Pic"
15321519,"Luxury 2 Bedroom Apartment","none","2016-10-02","a few days or more",33,"London",51.4887605028385,-0.180393981198246,"Apartment","Entire home/apt",4,1,2,2,"Real Bed","TV,Wireless Internet,Kitchen,Indoor fireplace,Heating,Family/kid friendly,Washer,Dryer,Smoke detector,Essentials,Hangers,Hair dryer,Iron,Laptop friendly workspace",207,NA,NA,4,0,NA,NA,NA,NA,NA,NA,NA,"flexible","Host Has Profile Pic,Is Location Exact"
9871816,"2 Bedroom Flat Belgravia","none","2013-10-24","within a day",90,"London",51.4887844533705,-0.154919466631846,"Apartment","Entire home/apt",4,2,2,2,"Real Bed","TV,Cable TV,Internet,Wireless Internet,Kitchen,Heating,Family/kid friendly,Washer,Dryer,Essentials,Hangers",250,250,40,2,2,80,6,10,10,10,10,10,"strict","Host Has Profile Pic,Is Location Exact"
15713322,"Cosy 1 bed apt in the heart of Kensington {FM2}","none","2014-12-01","within a few hours",100,"London",51.5031121515489,-0.193332294138494,"Apartment","Entire home/apt",4,1,1,1,"Real Bed","TV,Internet,Wireless Internet,Kitchen,Heating,Family/kid friendly,Washer,Smoke detector,Essentials,Shampoo,Hangers,Hair dryer,Iron,Laptop friendly workspace",125,150,55,3,1,100,10,10,10,10,10,10,"moderate","Host Has Profile Pic,Host Identity Verified,Is Location Exact"
15510968,"Cute and elegant room in South Kensington!","none","2012-09-06","within a few hours",100,"London",51.4928241370248,-0.181825915657715,"Apartment","Private room",2,1,1,1,"Real Bed","TV,Cable TV,Internet,Wireless Internet,Kitchen,Buzzer/wireless intercom,Heating,Washer,Smoke detector,Carbon monoxide detector,First aid kit,Safety card,Fire extinguisher,Essentials,Shampoo,24-hour check-in,Hangers,Hair dryer,Iron,Laptop friendly workspace,translation missing: en.hosting_amenity_49,translation missing: en.hosting_amenity_50",90,100,30,2,9,93,10,10,10,10,10,10,"strict","Host Has Profile Pic,Host Identity Verified,Is Location Exact"
16628875,"Cosy 2 bedroom Apartment in Central London","none","2016-09-28","within a day",73,"London",51.4951427239037,-0.19561388576018,"Apartment","Entire home/apt",5,1,2,3,"Real Bed","TV,Cable TV,Wireless Internet,Wheelchair accessible,Kitchen,Smoking allowed,Elevator in building,Buzzer/wireless intercom,Heating,Family/kid friendly,Washer,Smoke detector,Carbon monoxide detector,Essentials,Shampoo,Hangers,Iron,Private entrance",120,150,35,3,0,NA,NA,NA,NA,NA,NA,NA,"strict","Host Has Profile Pic,Host Identity Verified"
17019508,"STUNNING ENSUITE ROOM IN HOLLAND PARK  refStanns","none","2016-02-18","within a day",81,"London",51.5071057042242,-0.215087696948429,"Apartment","Private room",1,1,1,1,"Real Bed","Internet,Wireless Internet,Kitchen,Buzzer/wireless intercom,Heating,Washer,Dryer,Smoke detector,Carbon monoxide detector,First aid kit,Safety card,Fire extinguisher,Essentials,Shampoo,Lock on bedroom door,Hangers,Hair dryer,Iron,Laptop friendly workspace,translation missing: en.hosting_amenity_49,translation missing: en.hosting_amenity_50",36,NA,30,3,1,100,10,8,10,10,10,10,"strict","Host Has Profile Pic,Host Identity Verified"
15418905,"Stylish, Bijou Studio - Chelsea","none","2013-12-10","within an hour",100,"London",51.4929103927551,-0.167159308572748,"Apartment","Entire home/apt",2,1,0,1,"Real Bed","TV,Wireless Internet,Kitchen,Elevator in building,Heating,Washer,Dryer,Essentials,Shampoo,Hangers,translation missing: en.hosting_amenity_49,translation missing: en.hosting_amenity_50",100,349,70,3,0,NA,NA,NA,NA,NA,NA,NA,"strict","Host Is Superhost,Host Has Profile Pic,Host Identity Verified"
11355375,"Charming 2BR Apt in Chelsea with Terrace","none","2012-04-12","within an hour",99,"London",51.4885874669996,-0.195063259134857,"Apartment","Entire home/apt",8,2,2,2,"Real Bed","TV,Internet,Wireless Internet,Kitchen,Buzzer/wireless intercom,Heating,Family/kid friendly,Washer,Dryer,Smoke detector,Carbon monoxide detector,Fire extinguisher,Essentials,Shampoo,24-hour check-in,Hangers,Hair dryer,Iron",145,250,95,2,21,82,9,8,10,9,9,8,"strict","Host Has Profile Pic,Host Identity Verified,Is Location Exact,Instant Bookable"
9673593,"2 Double bed House in Premium  Chelsea Location.","none","2013-09-01","within a few hours",100,"London",51.4854952708354,-0.159144472656869,"House","Entire home/apt",4,1,2,2,"Real Bed","TV,Wireless Internet,Kitchen,Heating,Washer,Smoke detector,Essentials,Hangers,Hair dryer,Iron,translation missing: en.hosting_amenity_49,translation missing: en.hosting_amenity_50",148,NA,40,3,0,NA,NA,NA,NA,NA,NA,NA,"flexible","Host Has Profile Pic"
9673008,"Superb 1 bed flat in Chelsea {CG1}","none","2014-12-01","within a few hours",100,"London",51.4866723058512,-0.176959487965317,"Apartment","Entire home/apt",2,1,1,1,"Real Bed","TV,Internet,Wireless Internet,Kitchen,Heating,Washer,Dryer,Smoke detector,Carbon monoxide detector,Essentials,Shampoo,Hangers,Hair dryer,Iron,Laptop friendly workspace",170,300,60,3,13,100,10,10,10,10,10,9,"moderate","Host Has Profile Pic,Host Identity Verified,Is Location Exact"
16617214,"BEST LOCATION","none","2016-02-08","within an hour",100,"London",51.4938702199059,-0.185338596098307,"Apartment","Entire home/apt",4,1,1,1,"Real Bed","TV,Cable TV,Internet,Wireless Internet,Air conditioning,Kitchen,Heating,Family/kid friendly,Washer,Dryer,Smoke detector,Carbon monoxide detector,First aid kit,Fire extinguisher,Essentials,Shampoo,24-hour check-in,Hangers,Hair dryer,Iron,Laptop friendly workspace,Private entrance",100,NA,25,3,5,100,10,10,10,10,10,10,"strict","Host Has Profile Pic,Host Identity Verified,Is Location Exact"
8621184,"Beautiful & Cosy 1 Bed in the Heart of Portobello","none","2015-09-29","",NA,"London",51.5191605167091,-0.204323940912615,"Apartment","Entire home/apt",2,1,1,1,"Real Bed","TV,Wireless Internet,Kitchen,Buzzer/wireless intercom,Heating,Washer,Smoke detector,Carbon monoxide detector,Essentials,Hangers,Hair dryer,Iron,Laptop friendly workspace,translation missing: en.hosting_amenity_49,translation missing: en.hosting_amenity_50",111,NA,35,3,5,96,10,9,9,10,10,9,"moderate","Host Has Profile Pic,Is Location Exact"
14779959,"*Offer* Modern Interior Kensington","none","2016-05-05","within an hour",86,"London",51.4925932329029,-0.181759426635015,"Apartment","Entire home/apt",4,1,0,2,"Real Bed","TV,Internet,Wireless Internet,Kitchen,Buzzer/wireless intercom,Heating,Family/kid friendly,Washer,Dryer,Smoke detector,Essentials,Shampoo,24-hour check-in,Hangers,Laptop friendly workspace",110,400,35,1,1,100,10,10,10,10,10,10,"strict","Host Has Profile Pic,Host Identity Verified,Instant Bookable"
6521548,"Entire House 12 adults + rooftop","family","2014-07-10","within an hour",93,"London",51.5153357100926,-0.207843052943004,"House","Entire home/apt",12,6,6,6,"Real Bed","TV,Internet,Wireless Internet,Kitchen,Pets allowed,Heating,Family/kid friendly,Washer,Dryer,Smoke detector,Carbon monoxide detector,First aid kit,Safety card,Essentials,Shampoo",NA,NA,NA,7,0,NA,NA,NA,NA,NA,NA,NA,"strict","Host Has Profile Pic,Host Identity Verified,Is Location Exact"
17399215,"Newly refurbished bright and stylish flat","none","2015-09-16","within a few hours",100,"London",51.5048423369796,-0.212875727885343,"Apartment","Entire home/apt",2,1,1,1,"Real Bed","TV,Wireless Internet,Kitchen,Breakfast,Indoor fireplace,Heating,Family/kid friendly,Washer,Dryer,Smoke detector,Fire extinguisher,Essentials,Hangers,Hair dryer,Laptop friendly workspace",95,NA,NA,2,0,NA,NA,NA,NA,NA,NA,NA,"flexible","Host Has Profile Pic,Is Location Exact"
5732247,"Portobello Apartment","none","2013-11-01","",NA,"London",51.5210412736068,-0.206247991457625,"Apartment","Private room",2,1.5,1,1,"Real Bed","Wireless Internet,Kitchen,Family/kid friendly,Washer,Essentials,translation missing: en.hosting_amenity_49",35,200,20,7,0,NA,NA,NA,NA,NA,NA,NA,"flexible","Host Has Profile Pic"
17173215,"Convenient flat in central London","none","2013-10-25","within an hour",100,"London",51.4907874456092,-0.181828756165741,"Apartment","Entire home/apt",3,1,1,1,"Real Bed","TV,Internet,Wireless Internet,Kitchen,Hot tub,Heating,Washer,Smoke detector,Essentials,Shampoo,Hangers,Iron,Laptop friendly workspace,translation missing: en.hosting_amenity_49,translation missing: en.hosting_amenity_50",90,NA,30,1,0,NA,NA,NA,NA,NA,NA,NA,"flexible","Host Has Profile Pic,Host Identity Verified"
7563600,"Chic Large One Bedroom Trendy Flat","none","2012-10-23","within a day",75,"London",51.4841319794282,-0.176359923292184,"Apartment","Entire home/apt",4,1,1,2,"Real Bed","TV,Cable TV,Internet,Wireless Internet,Air conditioning,Kitchen,Buzzer/wireless intercom,Heating,Washer,Dryer,Smoke detector,Carbon monoxide detector,Fire extinguisher,Essentials,Shampoo",99,325,65,2,12,91,9,8,9,9,10,9,"strict","Host Has Profile Pic,Is Location Exact"
1927450,"Notting Hill Quiet Single Room","none","2013-11-13","within an hour",100,"London",51.5193952049941,-0.215080132831655,"Apartment","Private room",1,1,1,1,"Real Bed","Internet,Wireless Internet,Kitchen,Heating,Smoke detector,Carbon monoxide detector,First aid kit,Fire extinguisher,Essentials,Shampoo,Hangers,Hair dryer,Iron,translation missing: en.hosting_amenity_49,translation missing: en.hosting_amenity_50",40,100,15,1,108,95,10,10,10,10,10,10,"strict","Host Has Profile Pic,Host Identity Verified,Is Location Exact"
15298249,"Cosy 1 bedroom apartment in central location","none","2016-09-28","within a day",73,"London",51.4940100981466,-0.192052447902007,"Apartment","Entire home/apt",4,1,1,1,"Real Bed","TV,Cable TV,Internet,Wireless Internet,Kitchen,Smoking allowed,Breakfast,Elevator in building,Buzzer/wireless intercom,Heating,Family/kid friendly,Washer,Smoke detector,Carbon monoxide detector,Safety card,Essentials,Iron,Laptop friendly workspace",89,80,30,1,4,90,9,8,9,10,9,9,"strict","Host Has Profile Pic,Host Identity Verified"
26810,"Breakfast - WiFi - Towels - Own Lock - B","social","2010-04-26","within an hour",97,"London",51.5232183505803,-0.18843533537105,"Apartment","Private room",1,1.5,1,1,"Real Bed","Internet,Wireless Internet,Breakfast,Elevator in building,Heating,Washer,Smoke detector,Carbon monoxide detector,First aid kit,Safety card,Essentials,Shampoo,Lock on bedroom door,Hangers,Hair dryer,Iron,translation missing: en.hosting_amenity_49,translation missing: en.hosting_amenity_50",25,NA,NA,1,110,90,9,9,9,9,9,9,"moderate","Host Has Profile Pic,Host Identity Verified,Is Location Exact,Instant Bookable"
6620546,"3 BED IN THE HEART OF LITTLE VENICE","none","2012-10-28","within an hour",100,"London",51.523908397751,-0.181524844602341,"Apartment","Entire home/apt",6,2,3,3,"Real Bed","TV,Cable TV,Internet,Wireless Internet,Kitchen,Free parking on premises,Elevator in building,Buzzer/wireless intercom,Heating,Family/kid friendly,Washer,Smoke detector,Carbon monoxide detector,First aid kit,Essentials,Shampoo,Lock on bedroom door,24-hour check-in,Hangers,Hair dryer,Iron,Laptop friendly workspace",90,NA,40,3,20,99,10,10,10,10,10,10,"moderate","Host Is Superhost,Host Has Profile Pic,Host Identity Verified,Is Location Exact,Instant Bookable"
6974335,"Penthouse room nearBuckinghamPalace","none","2012-06-14","",NA,"London",51.5075705687564,-0.134302729687606,"Apartment","Private room",2,0.5,1,1,"Real Bed","TV,Internet,Wireless Internet,Kitchen,Doorman,Elevator in building,Heating,Family/kid friendly,Washer,Dryer,Smoke detector,Carbon monoxide detector,Essentials",95,NA,12,1,4,100,10,10,10,10,10,10,"flexible","Host Has Profile Pic,Host Identity Verified"
16027158,"Beautiful 1 Bedroom Flat in Little Venice","none","2014-06-02","within an hour",100,"London",51.5216688382365,-0.17811099982106,"Apartment","Entire home/apt",3,1,0,2,"Real Bed","Wireless Internet,Kitchen,Smoking allowed,Pets allowed,Breakfast,Elevator in building,Buzzer/wireless intercom,Heating,Family/kid friendly,Washer,Dryer,Smoke detector,Carbon monoxide detector,Safety card,Fire extinguisher,Essentials,Shampoo,Hair dryer,Iron,Laptop friendly workspace",80,NA,15,1,11,84,10,7,9,9,9,9,"strict","Host Has Profile Pic,Host Identity Verified,Is Location Exact,Instant Bookable"
9899989,"Room in a lovely garden flat","none","2013-08-24","",NA,"London",51.5177464505356,-0.198992609155119,"Bed & Breakfast","Private room",1,1,1,1,"Real Bed","TV,Cable TV,Internet,Wireless Internet,Pool,Kitchen,Buzzer/wireless intercom,Heating,Washer,Dryer,Smoke detector,First aid kit,Hangers,Hair dryer,Iron,Laptop friendly workspace",69,500,60,10,0,NA,NA,NA,NA,NA,NA,NA,"flexible","Host Has Profile Pic,Host Identity Verified,Is Location Exact"
4766899,"Lovely apartment in Maida Vale","none","2014-12-07","",NA,"London",51.5274977541059,-0.192178864817798,"Apartment","Entire home/apt",2,1,2,2,"Real Bed","TV,Internet,Wireless Internet,Kitchen,Indoor fireplace,Buzzer/wireless intercom,Heating,Washer,Dryer,Smoke detector,Carbon monoxide detector,Essentials",89,400,14,5,4,95,10,10,10,10,10,10,"moderate","Host Has Profile Pic"
4118651,"Charming Room In Soho","none","2012-09-01","",NA,"London",51.5156693196102,-0.135808398463016,"Apartment","Private room",1,1,1,1,"Real Bed","TV,Wireless Internet,Kitchen,Heating,Washer,Smoke detector,Essentials",89,NA,10,1,0,NA,NA,NA,NA,NA,NA,NA,"moderate","Host Has Profile Pic,Host Identity Verified"
6219140,"Lovely Apartment in Central London","none","2015-03-04","within a few hours",100,"London",51.5172008902682,-0.189575138758764,"Apartment","Entire home/apt",2,1,0,1,"Real Bed","TV,Internet,Wireless Internet,Kitchen,Hot tub,Heating,Washer,Dryer,Essentials,Shampoo,translation missing: en.hosting_amenity_49,translation missing: en.hosting_amenity_50",105,250,125,7,1,100,10,10,10,10,10,10,"strict","Host Has Profile Pic,Host Identity Verified,Is Location Exact"
3623312,"ONE BED FLAT PICCADILLY CIRCUS","family","2014-06-26","within a few hours",100,"London",51.509384763181,-0.132466504463621,"Apartment","Entire home/apt",3,1,1,2,"Real Bed","TV,Internet,Wireless Internet,Kitchen,Elevator in building,Buzzer/wireless intercom,Heating,Family/kid friendly,Washer,Dryer,Smoke detector,Carbon monoxide detector,Essentials,Shampoo,24-hour check-in,Hangers,Hair dryer,Iron,Laptop friendly workspace",120,NA,70,2,36,87,9,9,10,9,10,9,"moderate","Host Has Profile Pic,Host Identity Verified"
3961636,"Quiet n cosy double bedroom","none","2012-03-26","within a few hours",100,"London",51.5276541864154,-0.191109698469442,"Apartment","Private room",2,1,1,1,"Real Bed","TV,Internet,Wireless Internet,Kitchen,Buzzer/wireless intercom,Heating,Washer,Smoke detector,First aid kit,Fire extinguisher,Essentials,Shampoo",70,NA,20,2,23,97,10,9,10,10,10,10,"moderate","Host Is Superhost,Host Has Profile Pic,Host Identity Verified"
14824525,"Sunny Lux Flat, Beautiful 1bedroom, St Johns Wood","none","2013-03-15","within an hour",100,"London",51.5311246870902,-0.174053555908847,"Apartment","Private room",2,1,1,1,"Real Bed","TV,Internet,Wireless Internet,Wheelchair accessible,Kitchen,Doorman,Breakfast,Elevator in building,Buzzer/wireless intercom,Heating,Washer,Dryer,Smoke detector,Carbon monoxide detector,First aid kit,Essentials,Shampoo,Lock on bedroom door,Hangers,Hair dryer,Iron,Laptop friendly workspace,translation missing: en.hosting_amenity_49,translation missing: en.hosting_amenity_50,Private living room,Private entrance",52,NA,35,2,7,89,9,9,10,10,9,9,"moderate","Host Has Profile Pic,Host Identity Verified,Instant Bookable"
16842929,"Two Bedroom - Two Bathrooms Apartment","none","2016-02-09","within an hour",100,"London",51.5190966423057,-0.178637508943063,"Apartment","Entire home/apt",6,2,2,3,"Real Bed","TV,Wireless Internet,Air conditioning,Kitchen,Elevator in building,Hot tub,Heating,Family/kid friendly,Washer,Smoke detector,Carbon monoxide detector,Essentials,Hangers,Hair dryer,Iron,Private entrance",180,200,40,3,1,100,10,10,10,10,10,10,"strict","Host Has Profile Pic,Is Location Exact"
5612309,"Cozy Double in Bedroom Notting Hill","business","2015-03-10","",NA,"London",51.5172465200706,-0.189552145022118,"Apartment","Private room",1,1,1,1,"Real Bed","TV,Cable TV,Internet,Wireless Internet,Kitchen,Doorman,Elevator in building,Buzzer/wireless intercom,Heating,Washer,Dryer,Smoke detector,Safety card,Fire extinguisher",45,NA,5,5,1,NA,NA,NA,NA,NA,NA,NA,"flexible","Host Has Profile Pic,Host Identity Verified,Is Location Exact"
5941523,"Paddington:Double room,own bathroom.","none","2015-04-08","within an hour",100,"London",51.5172982317552,-0.180172873412673,"Apartment","Private room",2,1,1,1,"Real Bed","TV,Internet,Wireless Internet,Kitchen,Pets allowed,Pets live on this property,Dog(s),Buzzer/wireless intercom,Heating,Family/kid friendly,Washer,Smoke detector,Carbon monoxide detector,First aid kit,Safety card,Essentials,Shampoo,24-hour check-in,Hangers,Hair dryer,Iron,Laptop friendly workspace",58,350,12,1,28,97,10,10,10,10,10,10,"moderate","Host Is Superhost,Host Has Profile Pic,Is Location Exact"
15831679,"OXFORD STREET - Amazing flat","none","2016-09-25","within an hour",96,"London",51.5138429534704,-0.139992986772203,"Apartment","Entire home/apt",4,1,1,1,"Real Bed","TV,Internet,Wireless Internet,Kitchen,Pets allowed,Breakfast,Elevator in building,Heating,Family/kid friendly,Washer,Dryer,Smoke detector,Carbon monoxide detector,Safety card,Essentials,Shampoo,Hangers,Hair dryer,Iron",135,NA,30,2,24,99,10,10,10,10,10,10,"strict","Host Has Profile Pic,Is Location Exact,Instant Bookable"
7715075,"Cozy Double Room at Maida Vale","none","2015-06-30","",NA,"London",51.5294054297927,-0.18351232065378,"Apartment","Private room",2,1,1,1,"Real Bed","TV,Cable TV,Internet,Wireless Internet,Kitchen,Free parking on premises,Elevator in building,Hot tub,Buzzer/wireless intercom,Heating,Washer,Essentials,Shampoo",45,NA,7,1,0,NA,NA,NA,NA,NA,NA,NA,"moderate","Host Has Profile Pic,Host Identity Verified,Is Location Exact"
5449735,"One Bedroom Flat in Central London","none","2015-02-24","",NA,"London",51.5173605618025,-0.15924525585691,"Apartment","Entire home/apt",2,1,1,1,"Real Bed","TV,Cable TV,Internet,Wireless Internet,Kitchen,Buzzer/wireless intercom,Heating,Washer,Dryer,Smoke detector,Carbon monoxide detector,First aid kit,Safety card,Fire extinguisher,Essentials",127,250,50,1,0,NA,NA,NA,NA,NA,NA,NA,"moderate","Host Has Profile Pic,Is Location Exact"
11900617,"Access Marble Arch, 2-bedroom","none","2015-11-03","within a day",100,"London",51.5169259044989,-0.164123785478596,"Apartment","Entire home/apt",4,1,2,4,"Real Bed","TV,Wireless Internet,Kitchen,Elevator in building,Heating,Family/kid friendly,Washer,Dryer,24-hour check-in,Hangers,Iron",167,NA,NA,30,1,60,4,4,6,8,8,6,"moderate","Host Has Profile Pic,Host Identity Verified"
2201048,"Great Value London 1 Bed 2 Bath Spacious w Parking","romantic","2011-06-01","within an hour",80,"London",51.5236787357902,-0.194908052766046,"Apartment","Entire home/apt",4,1.5,1,2,"Real Bed","TV,Internet,Wireless Internet,Kitchen,Free parking on premises,Elevator in building,Heating,Family/kid friendly,Washer,Dryer,Smoke detector,Carbon monoxide detector,First aid kit,Safety card,Fire extinguisher,Essentials,Shampoo,translation missing: en.hosting_amenity_50",104,200,70,3,23,99,10,10,10,10,10,10,"moderate","Host Is Superhost,Host Has Profile Pic,Host Identity Verified,Require Guest Phone Verification"
16258583,"Mayfair Selfridges Penthouse 3 bedrooms","none","2016-10-31","within a day",83,"London",51.5133942027027,-0.155600501712231,"Apartment","Entire home/apt",6,2.5,3,3,"Real Bed","TV,Wireless Internet,Kitchen,Elevator in building,Heating,Family/kid friendly,Essentials,Hangers",332,NA,60,2,0,NA,NA,NA,NA,NA,NA,NA,"strict","Host Has Profile Pic,Host Identity Verified,Is Location Exact"
6102515,"*****Ethical Chic 100% Vegan Home","social","2014-04-18","within a few hours",75,"London",51.5280284046616,-0.179744410549284,"Apartment","Private room",2,1,1,2,"Real Bed","Internet,Wireless Internet,Kitchen,Smoking allowed,Doorman,Elevator in building,Hot tub,Heating,Washer,First aid kit,Fire extinguisher,Essentials,Shampoo",120,NA,NA,1,0,NA,NA,NA,NA,NA,NA,NA,"flexible","Host Has Profile Pic,Is Location Exact,Instant Bookable"
5595322,"Garden flat in Notting Hill","none","2015-02-09","within a few hours",100,"London",51.5160237565942,-0.19525122545538,"Apartment","Entire home/apt",2,1,1,1,"Real Bed","Internet,Wireless Internet,Kitchen,Pets allowed,Heating,Washer,Dryer,Smoke detector,Carbon monoxide detector,Essentials,Shampoo",110,NA,50,3,51,86,9,9,9,9,10,9,"moderate","Host Has Profile Pic,Host Identity Verified,Is Location Exact"
4776273,"fantastic double room in Paddington","none","2014-12-08","within an hour",100,"London",51.5172042038351,-0.180982617203644,"Apartment","Private room",2,1,1,1,"Real Bed","Internet,Wireless Internet,Kitchen,Elevator in building,Buzzer/wireless intercom,Heating,Washer,Dryer,Smoke detector,Essentials,Shampoo,Hair dryer,translation missing: en.hosting_amenity_49,translation missing: en.hosting_amenity_50",52,NA,5,1,1,NA,NA,NA,NA,NA,NA,NA,"flexible","Host Has Profile Pic,Is Location Exact"
4579858,"Charmin 2BD in Lil Venice","none","2014-05-24","",NA,"London",51.5241313641906,-0.181104986982,"Apartment","Private room",1,1,1,1,"Real Bed","TV,Wireless Internet,Kitchen,Heating,Washer,Smoke detector,Essentials,Shampoo",40,NA,25,4,2,80,10,6,7,10,9,9,"strict","Host Has Profile Pic,Is Location Exact"
17373704,"Modern stylish flat in Soho!","none","2015-01-29","",NA,"London",51.5137095649703,-0.135827317269603,"Apartment","Entire home/apt",2,1,0,1,"Real Bed","TV,Internet,Wireless Internet,Kitchen,Heating,Washer,Dryer,Shampoo,translation missing: en.hosting_amenity_49,translation missing: en.hosting_amenity_50",122,204,20,4,0,NA,NA,NA,NA,NA,NA,NA,"strict","Host Has Profile Pic,Host Identity Verified"
11541944,"Private Shower-Double Room","none","2015-09-07","within a day",75,"London",51.5167591643881,-0.180627253163605,"Apartment","Private room",2,1.5,1,1,"Real Bed","Internet,Wireless Internet,Kitchen,Hot tub,Heating,Washer,Essentials,Shampoo,Hair dryer,Iron",49,100,7,1,3,87,9,8,9,9,10,7,"strict","Host Has Profile Pic,Host Identity Verified"
7491509,"Central Beautiful Flat - Marylebone","none","2015-01-14","within a few hours",93,"London",51.5194300320902,-0.150946173838513,"Apartment","Private room",2,2,1,1,"Real Bed","Internet,Wireless Internet,Kitchen,Elevator in building,Heating,Family/kid friendly,Washer,Dryer,Smoke detector,Essentials",69,400,15,5,15,93,10,10,10,10,10,10,"moderate","Host Has Profile Pic,Host Identity Verified"
4726811,"Beautiful Room near Hyde Park","social","2012-12-11","",NA,"London",51.5130754783384,-0.18484679229169,"Apartment","Private room",2,1,1,1,"Real Bed","Kitchen,Doorman,Elevator in building,Heating,Washer,Smoke detector,Carbon monoxide detector,Essentials",50,350,10,1,0,NA,NA,NA,NA,NA,NA,NA,"flexible","Host Has Profile Pic"
1464430,"London charmy flat","none","2013-07-31","within a day",67,"London",51.488566218782,-0.143365679960034,"Apartment","Entire home/apt",3,1,1,2,"Real Bed","TV,Internet,Wireless Internet,Kitchen,Hot tub,Heating,Family/kid friendly,Washer,Smoke detector,Carbon monoxide detector",80,300,40,4,2,90,8,9,8,8,9,8,"strict","Host Has Profile Pic,Host Identity Verified,Is Location Exact"
16669557,"Amazing Flat on Oxford Street Marble Arch","none","2015-10-31","within a day",67,"London",51.5145846045554,-0.1618583857896,"Apartment","Entire home/apt",2,1,0,1,"Real Bed","TV,Wireless Internet,Kitchen,Breakfast,Elevator in building,Heating,Family/kid friendly,Washer,Essentials,Hair dryer,Iron,Laptop friendly workspace",92,NA,NA,1,0,NA,NA,NA,NA,NA,NA,NA,"flexible","Host Has Profile Pic,Host Identity Verified"
679873,"3 minutes from Kensington Gardens","none","2012-09-03","",NA,"London",51.5107763716058,-0.186992788528824,"Apartment","Entire home/apt",4,1,2,2,"Real Bed","TV,Cable TV,Internet,Wireless Internet,Wheelchair accessible,Kitchen,Doorman,Elevator in building,Heating,Family/kid friendly,Washer",210,400,120,7,0,NA,NA,NA,NA,NA,NA,NA,"strict","Host Has Profile Pic,Host Identity Verified,Is Location Exact"
14704778,"2BR 2BA BY COVENT GARDEN - CHARING CROSS - 110","none","2011-10-05","within a day",98,"London",51.5106633525394,-0.122615253773571,"Apartment","Entire home/apt",6,2,2,3,"Real Bed","TV,Cable TV,Internet,Wireless Internet,Kitchen,Heating,Family/kid friendly,Washer,Dryer,Smoke detector,Safety card,Essentials,Shampoo,24-hour check-in,Hangers,Hair dryer,Iron,Laptop friendly workspace",190,400,110,1,8,80,8,9,8,7,10,9,"strict","Host Has Profile Pic,Host Identity Verified,Require Guest Phone Verification"
15873096,"Great flat central from experienced host","none","2016-09-25","within a day",100,"London",51.4893821002109,-0.13404611389572,"House","Entire home/apt",9,1.5,3,5,"Real Bed","Wireless Internet,Kitchen,Heating,Washer,Dryer",230,NA,120,1,1,80,8,4,8,6,10,6,"strict","Host Has Profile Pic,Host Identity Verified"
8806785,"Luxury and Spacious Living","none","2013-07-03","within an hour",95,"London",51.5206973670769,-0.157387720638383,"Apartment","Entire home/apt",8,3,4,4,"Real Bed","TV,Internet,Wireless Internet,Pool,Kitchen,Heating,Family/kid friendly,Washer,Dryer",550,500,135,14,0,NA,NA,NA,NA,NA,NA,NA,"flexible","Host Has Profile Pic,Host Identity Verified"
8283770,"SUPERComfy 2 bed 4px. apt. Victoria-Pimlico-Chelse","none","2015-04-23","within an hour",100,"London",51.4869636267132,-0.144984168430506,"Apartment","Entire home/apt",5,1.5,2,3,"Real Bed","TV,Wireless Internet,Kitchen,Heating,Family/kid friendly,Washer,Carbon monoxide detector,First aid kit,Safety card,Fire extinguisher,Essentials,Shampoo,24-hour check-in,Hangers,Hair dryer,Iron,Laptop friendly workspace",180,100,35,1,7,91,9,9,9,9,9,9,"moderate","Host Has Profile Pic,Host Identity Verified,Instant Bookable"
26713,"Breakfast - WiFi - Towels - Own Lock - O","social","2010-04-26","within an hour",97,"London",51.5237328060313,-0.187567116023682,"Apartment","Private room",3,1.5,1,2,"Real Bed","Internet,Wireless Internet,Breakfast,Elevator in building,Buzzer/wireless intercom,Heating,Washer,Smoke detector,Carbon monoxide detector,First aid kit,Safety card,Fire extinguisher,Essentials,Shampoo,Lock on bedroom door,Hangers,Hair dryer,Iron,Laptop friendly workspace,translation missing: en.hosting_amenity_49,translation missing: en.hosting_amenity_50",24,NA,NA,1,158,87,9,9,9,9,9,9,"moderate","Host Has Profile Pic,Host Identity Verified,Is Location Exact,Instant Bookable"
15948758,"Awesome 2 Bedroom Flat City Centre!","none","2015-06-22","within an hour",92,"London",51.5250210523371,-0.170573822886167,"Apartment","Entire home/apt",5,2,2,3,"Real Bed","TV,Cable TV,Internet,Wireless Internet,Kitchen,Free parking on premises,Doorman,Gym,Elevator in building,Hot tub,Buzzer/wireless intercom,Heating,Family/kid friendly,Essentials,Hangers,Iron",104,100,50,4,2,70,10,6,10,9,9,9,"moderate","Host Has Profile Pic,Host Identity Verified"
16412362,"Stylish and central garden flat","none","2013-06-22","within a day",90,"London",51.4924122471034,-0.145654831916941,"Apartment","Entire home/apt",2,1,1,1,"Real Bed","Internet,Wireless Internet,Kitchen,Heating,Washer,Smoke detector,Carbon monoxide detector,Essentials,Hangers,Private entrance",95,NA,30,2,1,NA,NA,NA,NA,NA,NA,NA,"moderate","Host Has Profile Pic,Host Identity Verified"
14600436,"Charming flat near holland Park","none","2012-08-06","within an hour",100,"London",51.4989345185467,-0.20163255872507,"Apartment","Entire home/apt",2,1,1,1,"Real Bed","TV,Internet,Wireless Internet,Kitchen,Heating,Family/kid friendly,Washer,Dryer,Smoke detector,Fire extinguisher,Essentials,Shampoo,Hangers,Hair dryer,Iron",106,NA,41,3,5,96,10,9,10,10,10,10,"moderate","Host Has Profile Pic,Host Identity Verified"
6480309,"Central London/Kensington apartment","none","2015-05-20","within a few hours",100,"London",51.4935261149638,-0.198780079225523,"Apartment","Private room",4,1,1,2,"Real Bed","TV,Internet,Wireless Internet,Kitchen,Indoor fireplace,Heating,Family/kid friendly,Washer,Smoke detector,Carbon monoxide detector,Essentials,Shampoo,translation missing: en.hosting_amenity_49,translation missing: en.hosting_amenity_50",89,99,20,1,47,91,9,9,10,10,10,9,"strict","Host Has Profile Pic,Host Identity Verified"
13555670,"Stunning Kensington Flat overlooking Hyde Park","none","2014-04-22","within a few hours",100,"London",51.5028681633501,-0.188205193116465,"Apartment","Entire home/apt",2,1,1,1,"Real Bed","TV,Cable TV,Internet,Wireless Internet,Kitchen,Buzzer/wireless intercom,Heating,Washer,Smoke detector,Carbon monoxide detector,Essentials,Shampoo,Hangers,Hair dryer,Iron",117,200,35,5,6,93,10,8,9,10,10,10,"strict","Host Has Profile Pic,Host Identity Verified,Is Location Exact"
15696021,"Private Room in Earls Court","none","2016-10-26","within an hour",100,"London",51.4902456029751,-0.194728055681702,"Apartment","Private room",2,1,1,1,"Real Bed","TV,Cable TV,Internet,Wireless Internet,Kitchen,Smoking allowed,Breakfast,Hot tub,Buzzer/wireless intercom,Heating,Washer,Dryer,Smoke detector,Fire extinguisher,Essentials,Shampoo,Hangers,Hair dryer,Iron,translation missing: en.hosting_amenity_49,translation missing: en.hosting_amenity_50",50,NA,NA,2,3,93,9,9,10,10,10,9,"moderate","Host Has Profile Pic,Is Location Exact"
8497087,"Chelsea classic balcony Villa","none","2010-08-15","within a few hours",100,"London",51.4867868367227,-0.177032014307095,"Apartment","Entire home/apt",4,1,2,2,"Real Bed","TV,Cable TV,Internet,Wireless Internet,Kitchen,Smoking allowed,Hot tub,Buzzer/wireless intercom,Heating,Family/kid friendly,Washer,Dryer,Smoke detector,Carbon monoxide detector,Safety card,Fire extinguisher,Essentials,Shampoo,Hangers,Hair dryer,Iron,Laptop friendly workspace",166,200,39,3,24,96,10,9,10,10,10,10,"moderate","Host Has Profile Pic,Host Identity Verified,Is Location Exact"
15061192,"Chelsea King's Road Two Bedroom Apartment","none","2016-03-03","within an hour",100,"London",51.4828833755316,-0.179785580918965,"Apartment","Private room",4,2,2,2,"Real Bed","TV,Internet,Wireless Internet,Kitchen,Heating,Washer,Dryer,Smoke detector,Carbon monoxide detector,Essentials,Shampoo,24-hour check-in,Hangers,Hair dryer,Iron,Laptop friendly workspace,translation missing: en.hosting_amenity_49,translation missing: en.hosting_amenity_50",125,NA,40,30,11,91,10,9,9,9,9,9,"moderate","Host Has Profile Pic,Host Identity Verified,Is Location Exact"
15717585,"One bedroom flat in Chelsea (zone1)","none","2015-07-17","within a day",67,"London",51.4858146474762,-0.182706823253735,"Apartment","Entire home/apt",4,1,1,2,"Real Bed","TV,Internet,Wireless Internet,Air conditioning,Kitchen,Free parking on premises,Hot tub,Heating,Family/kid friendly,Washer,Dryer,Smoke detector,Carbon monoxide detector,Shampoo,Hangers,Hair dryer,Iron,Laptop friendly workspace",150,100,NA,1,1,100,10,10,10,10,10,10,"flexible","Host Has Profile Pic,Host Identity Verified"
887283,"Chelsea flat","none","2013-01-15","within a day",100,"London",51.4839096253593,-0.173679504808363,"Apartment","Entire home/apt",2,1,1,2,"Real Bed","Internet,Wireless Internet,Kitchen,Buzzer/wireless intercom,Heating,Family/kid friendly,Washer,Dryer,Smoke detector,Carbon monoxide detector,Essentials,Shampoo,24-hour check-in,Hangers,Hair dryer,Iron,Laptop friendly workspace",80,NA,NA,5,0,NA,NA,NA,NA,NA,NA,NA,"moderate","Host Has Profile Pic,Is Location Exact"
7321773,"KENSINGTON CHELSEA LOVELY VICTORIAN HOME- The Earl","none","2012-03-20","within an hour",89,"London",51.491102079224,-0.183393258221533,"Apartment","Entire home/apt",4,2,2,3,"Real Bed","TV,Cable TV,Internet,Wireless Internet,Air conditioning,Kitchen,Indoor fireplace,Buzzer/wireless intercom,Heating,Family/kid friendly,Washer,Dryer,Smoke detector,Carbon monoxide detector,Fire extinguisher,Essentials,Shampoo,24-hour check-in,Hangers,Hair dryer,Iron,Laptop friendly workspace",425,NA,55,4,6,100,10,10,10,10,10,10,"strict","Host Has Profile Pic,Host Identity Verified"
4439253,"Studio Flat Kensington, London","business","2014-09-15","",NA,"London",51.4926958286234,-0.193989391262831,"Apartment","Entire home/apt",2,1,0,1,"Real Bed","TV,Internet,Wireless Internet,Kitchen,Heating,Washer,Smoke detector,Carbon monoxide detector,Essentials,Shampoo",140,500,20,5,0,NA,NA,NA,NA,NA,NA,NA,"strict","Host Has Profile Pic,Is Location Exact"
17536355,"Westwood House Chelsea1","none","2017-02-13","within an hour",95,"London",51.4828711972997,-0.174722729631552,"Apartment","Entire home/apt",2,1,0,1,"Real Bed","TV,Kitchen,Elevator in building,Heating,Family/kid friendly,Washer,Dryer,Smoke detector,Fire extinguisher,Hangers,Private entrance",90,NA,NA,1,0,NA,NA,NA,NA,NA,NA,NA,"flexible","Host Has Profile Pic,Is Location Exact,Instant Bookable"
16403623,"Charming Room Near Portobello Market","none","2016-02-14","a few days or more",0,"London",51.5176183998076,-0.210417684916708,"Apartment","Private room",2,1,1,1,"Real Bed","TV,Wireless Internet,Kitchen,Pets allowed,Breakfast,Heating,Washer,Smoke detector,Essentials,Shampoo,Hair dryer,translation missing: en.hosting_amenity_49",57,NA,NA,1,0,NA,NA,NA,NA,NA,NA,NA,"flexible","Host Has Profile Pic,Host Identity Verified,Is Location Exact,Instant Bookable"
7731202,"Bedroom available for Carnival","none","2015-08-05","",NA,"London",51.5134259912537,-0.197790560875543,"Apartment","Private room",2,1,1,1,"Real Bed","",60,NA,NA,1,0,NA,NA,NA,NA,NA,NA,NA,"flexible","Host Has Profile Pic"
8386804,"Luxury Portobello Apartment","none","2013-09-19","within an hour",100,"London",51.5206568902408,-0.213911936542832,"Apartment","Entire home/apt",2,1,1,1,"Real Bed","TV,Cable TV,Internet,Wireless Internet,Kitchen,Heating,Family/kid friendly,Washer,Essentials,Shampoo,Hangers,Hair dryer,Iron,Laptop friendly workspace",100,NA,30,2,42,94,10,10,10,10,9,9,"flexible","Host Has Profile Pic,Is Location Exact"
9036469,"The Mansions 1 Bedroom","none","2015-10-14","within a few hours",100,"London",51.4911710937124,-0.190955066685081,"Apartment","Entire home/apt",4,1,1,3,"Real Bed","TV,Internet,Wireless Internet,Kitchen,Elevator in building,Buzzer/wireless intercom,Heating,Family/kid friendly,Washer,Dryer,Smoke detector,Carbon monoxide detector,Safety card,Fire extinguisher,Essentials,Shampoo,24-hour check-in,Hangers,Hair dryer,Iron,Laptop friendly workspace",160,NA,NA,1,2,100,9,10,9,10,10,10,"strict","Host Has Profile Pic,Is Location Exact"
17424761,"South Kensington room","none","2016-12-01","within an hour",100,"London",51.4938562207223,-0.169431136806254,"Apartment","Private room",1,1,1,1,"Real Bed","TV,Internet,Wireless Internet,Kitchen,Hot tub,Heating,Washer,translation missing: en.hosting_amenity_49",60,NA,NA,1,1,100,10,10,10,10,10,10,"flexible","Host Has Profile Pic"
4545583,"Stylish and Luxury Flat Knightsbridge","none","2010-03-30","within a few hours",100,"London",51.4985062296816,-0.169961626795711,"Apartment","Entire home/apt",2,1,1,1,"Real Bed","Internet,Wireless Internet,Kitchen,Heating,Family/kid friendly,Washer,Dryer,Essentials,Shampoo,24-hour check-in,Hangers,Hair dryer,Iron,Laptop friendly workspace",149,300,47,1,68,87,9,9,9,10,10,9,"strict","Host Has Profile Pic,Host Identity Verified,Is Location Exact"
5515626,"Redburn Street, Pro-Managed","romantic","2014-01-02","within a few hours",99,"London",51.4870667798085,-0.163761590597706,"Apartment","Entire home/apt",2,1,1,1,"Real Bed","TV,Wireless Internet,Kitchen,Heating,Family/kid friendly,Washer,Essentials,Hangers,Hair dryer,Iron,Laptop friendly workspace,translation missing: en.hosting_amenity_50,Private entrance",205,500,98,5,0,NA,NA,NA,NA,NA,NA,NA,"strict","Host Has Profile Pic,Host Identity Verified,Is Location Exact"
4737639,"Light and cosy 2 Bedroom flat","none","2012-12-12","within an hour",100,"London",51.4928666787802,-0.183703305559517,"Apartment","Entire home/apt",4,2,2,2,"Real Bed","TV,Cable TV,Wireless Internet,Kitchen,Breakfast,Buzzer/wireless intercom,Heating,Family/kid friendly,Washer,Smoke detector,Shampoo",190,NA,40,2,7,93,8,10,10,10,10,9,"moderate","Host Has Profile Pic,Host Identity Verified,Is Location Exact"
3676876,"Lovely bright single room","none","2013-08-12","within an hour",100,"London",51.4912056435769,-0.180285365507557,"Apartment","Private room",1,1,1,1,"Real Bed","",75,NA,NA,2,1,100,10,10,10,10,10,8,"moderate","Host Has Profile Pic,Host Identity Verified,Is Location Exact"
8006451,"King road II,South Kens, London","none","2015-04-10","within a few hours",85,"London",51.4863538258188,-0.172593146540299,"Apartment","Entire home/apt",4,1,2,2,"Real Bed","TV,Cable TV,Internet,Wireless Internet,Kitchen,Heating,Washer,Dryer,Smoke detector,Carbon monoxide detector,Essentials,Shampoo,24-hour check-in,Hangers,Hair dryer,Iron,Laptop friendly workspace",345,NA,50,3,3,73,9,9,10,10,10,7,"strict","Host Has Profile Pic,Host Identity Verified"
15342794,"Pied a Terre","none","2016-10-03","within an hour",100,"London",51.4908292446619,-0.19764570501584,"Apartment","Private room",1,1,1,1,"Real Bed","Internet,Wireless Internet,Kitchen,Heating,Essentials,Shampoo,Hangers,Hair dryer,Iron,translation missing: en.hosting_amenity_49,translation missing: en.hosting_amenity_50",35,NA,NA,1,32,84,9,9,10,10,9,9,"flexible","Host Has Profile Pic,Is Location Exact,Instant Bookable"
16153220,"Chelsea Double Bed Room R1","none","2016-11-24","within a few hours",97,"London",51.4816193755044,-0.177361624293253,"Apartment","Private room",2,1,1,1,"Real Bed","Wireless Internet,Kitchen,Elevator in building,Heating,Family/kid friendly,Washer,Smoke detector,Lock on bedroom door,Hangers,Iron,Laptop friendly workspace",39,200,20,7,1,100,8,8,10,10,10,10,"strict","Host Has Profile Pic,Host Identity Verified,Is Location Exact"
14712301,"Cozy Studio between Earls Court and Gloucester Rd","none","2013-07-02","within a few hours",100,"London",51.4924740202208,-0.188628400994428,"Apartment","Entire home/apt",1,1,1,1,"Real Bed","Wireless Internet,Kitchen,Smoking allowed,Heating,Washer,Smoke detector,Essentials,Shampoo,Hangers,Iron,Laptop friendly workspace",50,100,30,5,2,90,10,10,9,9,9,10,"strict","Host Has Profile Pic,Host Identity Verified"
560455,"Stunning Georgian Conversion","none","2012-01-31","within an hour",100,"London",51.4964878851997,-0.185083157322046,"Apartment","Entire home/apt",6,1,2,3,"Real Bed","TV,Internet,Wireless Internet,Air conditioning,Kitchen,Elevator in building,Buzzer/wireless intercom,Heating,Family/kid friendly,Washer,Dryer,Smoke detector,Carbon monoxide detector,First aid kit,Safety card,Fire extinguisher,Essentials",245,250,40,3,2,100,10,9,8,9,10,9,"strict","Host Has Profile Pic,Host Identity Verified,Instant Bookable,Require Guest Phone Verification"
14588182,"Beautiful Spacious 2 Bed Apartment in Earls Court","none","2016-07-29","within an hour",100,"London",51.4931961807428,-0.197477732304755,"Apartment","Entire home/apt",4,1,2,2,"Real Bed","TV,Internet,Wireless Internet,Kitchen,Indoor fireplace,Heating,Family/kid friendly,Washer,Dryer,Smoke detector,Carbon monoxide detector,Essentials,Hangers,Hair dryer,Iron,Laptop friendly workspace",200,NA,60,4,9,98,10,10,10,10,10,10,"moderate","Host Has Profile Pic,Is Location Exact,Instant Bookable"
15243754,"Eclectic & Spacious 2 Bed 2 Bath near Notting Hill","none","2016-09-27","within a few hours",90,"London",51.5170673881385,-0.222258401432039,"Apartment","Entire home/apt",4,2,2,2,"Real Bed","TV,Internet,Wireless Internet,Kitchen,Heating,Family/kid friendly,Washer,Dryer,Smoke detector,Essentials,Shampoo,24-hour check-in,Hangers,Hair dryer,Iron,Laptop friendly workspace,translation missing: en.hosting_amenity_50",144,NA,80,2,12,92,9,9,9,10,9,9,"strict","Host Has Profile Pic,Is Location Exact"
16761978,"★Gorgeous & Big Portobello/Notting Hill Apartment★","none","2014-09-23","within a day",96,"London",51.5255933846275,-0.208948306190479,"Apartment","Entire home/apt",8,1.5,3,4,"Real Bed","TV,Internet,Wireless Internet,Kitchen,Heating,Family/kid friendly,Washer,Dryer,Smoke detector,Carbon monoxide detector,Essentials,Shampoo,Hangers,Hair dryer,Iron,Laptop friendly workspace,Self Check-In,Lockbox",145,100,55,1,0,NA,NA,NA,NA,NA,NA,NA,"strict","Host Has Profile Pic,Host Identity Verified"
11216662,"Notting Hill Garden Apartment - Bright & Sassy","none","2016-02-12","within a day",75,"London",51.5137427079236,-0.19574160010236,"Apartment","Entire home/apt",4,1,1,3,"Real Bed","TV,Cable TV,Internet,Wireless Internet,Kitchen,Gym,Buzzer/wireless intercom,Heating,Family/kid friendly,Washer,Dryer,Smoke detector,Carbon monoxide detector,First aid kit,Safety card,Fire extinguisher,Essentials,Shampoo,24-hour check-in,Hangers,Hair dryer,Iron,Laptop friendly workspace,Private entrance",110,495,60,3,12,93,9,10,10,10,10,9,"strict","Host Has Profile Pic,Is Location Exact"
8168503,"Notting Hill, Beautiful Double Room","none","2012-02-25","",NA,"London",51.5173953612385,-0.20295358289872,"Apartment","Private room",2,1,1,2,"Real Bed","Internet,Wireless Internet,Kitchen,Hot tub,Buzzer/wireless intercom,Heating,Family/kid friendly,Washer,Dryer,Smoke detector,Carbon monoxide detector,Essentials",25,NA,NA,14,0,NA,NA,NA,NA,NA,NA,NA,"moderate","Host Has Profile Pic,Is Location Exact"
13936076,"Unbeatable Location - Superhost!","none","2011-12-08","within a few hours",100,"London",51.4945142737793,-0.160497526826182,"Apartment","Entire home/apt",4,2,2,2,"Real Bed","Internet,Wireless Internet,Kitchen,Heating,Washer,Dryer,Smoke detector,Carbon monoxide detector,Essentials,Shampoo,24-hour check-in,Hangers,Hair dryer,Iron,Laptop friendly workspace,Self Check-In,Lockbox,Private entrance",155,400,NA,1,28,95,10,10,10,10,10,9,"strict","Host Is Superhost,Host Has Profile Pic,Host Identity Verified"
10006480,"Luxury 2 bed 2 bath with terrace","none","2012-10-16","within a day",100,"London",51.4926595785502,-0.199705234465385,"Apartment","Entire home/apt",4,2,2,2,"Real Bed","TV,Cable TV,Internet,Wireless Internet,Air conditioning,Kitchen,Buzzer/wireless intercom,Heating,Family/kid friendly,Washer,Dryer,Smoke detector,Essentials,Shampoo,Hangers,Hair dryer,Iron,Laptop friendly workspace",120,NA,40,2,8,100,10,10,10,10,10,10,"moderate","Host Has Profile Pic,Is Location Exact"
8438720,"Amazing 1 bedroom apt with Garden","none","2011-05-10","a few days or more",0,"London",51.5084833395748,-0.210465555273514,"Apartment","Entire home/apt",3,1,1,1,"Real Bed","TV,Cable TV,Wireless Internet,Kitchen,Buzzer/wireless intercom,Heating,Family/kid friendly,Washer,Dryer,Shampoo",146,NA,26,4,0,NA,NA,NA,NA,NA,NA,NA,"strict","Host Has Profile Pic,Host Identity Verified,Is Location Exact"
804018,"CHELSEA, Cosy Room Private Bathroom!","business","2012-07-31","within an hour",100,"London",51.4819910035214,-0.187682331517487,"Apartment","Private room",1,1,1,1,"Real Bed","TV,Cable TV,Internet,Wireless Internet,Kitchen,Breakfast,Indoor fireplace,Buzzer/wireless intercom,Heating,Family/kid friendly,Washer,Smoke detector,Carbon monoxide detector,First aid kit,Essentials,Shampoo,Hangers,Hair dryer,Iron,Laptop friendly workspace,translation missing: en.hosting_amenity_50",60,NA,NA,2,188,98,10,10,10,10,10,10,"strict","Host Has Profile Pic,Host Identity Verified,Is Location Exact,Require Guest Phone Verification"
11287809,"Amazing  new flat in Portobello","none","2016-02-15","within an hour",95,"London",51.5214640773997,-0.209891629643662,"Apartment","Entire home/apt",4,1,1,1,"Couch","TV,Wireless Internet,Kitchen,Elevator in building,Heating,Family/kid friendly,Washer,Dryer,Smoke detector,Essentials,Shampoo,Hangers,Hair dryer,Iron,Laptop friendly workspace",100,150,40,6,4,95,10,10,10,10,10,9,"strict","Host Has Profile Pic,Host Identity Verified,Is Location Exact,Instant Bookable"
7480367,"Private Bedroom in Kensington","none","2014-05-12","within a day",100,"London",51.4967100234452,-0.195958733825923,"Apartment","Private room",2,2,1,1,"Real Bed","TV,Internet,Wireless Internet,Kitchen,Indoor fireplace,Buzzer/wireless intercom,Heating,Washer,Dryer,Smoke detector,Carbon monoxide detector,Essentials,Hangers,Iron",70,NA,10,2,30,98,10,10,10,10,10,10,"moderate","Host Is Superhost,Host Has Profile Pic,Host Identity Verified"
16254646,"Light Airy 1 bed near Portobello + Notting Hill","none","2013-03-07","within a day",100,"London",51.5236209057294,-0.221456774277483,"Apartment","Entire home/apt",2,1,1,1,"Real Bed","TV,Cable TV,Internet,Wireless Internet,Kitchen,Buzzer/wireless intercom,Heating,Washer,Dryer,Smoke detector,Essentials,Shampoo,Hangers,Hair dryer,Iron,Laptop friendly workspace,translation missing: en.hosting_amenity_49,translation missing: en.hosting_amenity_50",80,85,20,1,1,100,10,10,10,10,10,10,"moderate","Host Has Profile Pic,Host Identity Verified"
13108665,"Stylish 2 bed Pied a Terre in Kensington Hyde Park","none","2016-05-19","within a day",100,"London",51.4986803694984,-0.19254853984644,"Apartment","Entire home/apt",3,1,2,1,"Real Bed","TV,Internet,Wireless Internet,Kitchen,Pets allowed,Buzzer/wireless intercom,Heating,Family/kid friendly,Washer,Dryer,Smoke detector,Essentials,Shampoo,Hangers,Hair dryer,Iron,Laptop friendly workspace",145,500,60,3,3,93,10,9,10,10,10,9,"moderate","Host Has Profile Pic,Host Identity Verified,Is Location Exact"
11818782,"Stunning Cosy Flat in Farringdon","none","2013-03-09","within an hour",100,"London",51.5186258164749,-0.100090369694512,"Apartment","Entire home/apt",2,1,1,1,"Real Bed","TV,Internet,Wireless Internet,Kitchen,Elevator in building,Heating,Washer,Dryer,Smoke detector,Essentials,Shampoo,24-hour check-in,Hangers,Hair dryer,Iron,Laptop friendly workspace,translation missing: en.hosting_amenity_49,translation missing: en.hosting_amenity_50,Self Check-In,Lockbox",120,NA,51,2,45,96,10,10,10,10,10,10,"moderate","Host Is Superhost,Host Has Profile Pic,Host Identity Verified,Is Location Exact"
2379895,"Large one bedroom flat","none","2014-02-11","within an hour",100,"London",51.5192271297108,-0.0970882508677371,"Apartment","Entire home/apt",3,1,1,2,"Real Bed","Internet,Wireless Internet,Kitchen,Elevator in building,Buzzer/wireless intercom,Heating,Family/kid friendly,Washer",150,200,40,2,25,90,9,8,10,9,10,9,"strict","Host Has Profile Pic,Host Identity Verified"
6324490,"Urban Stay Modern City Flat AL12","business","2014-07-10","within an hour",93,"London",51.517422861184,-0.0782870265307087,"Apartment","Entire home/apt",4,2,2,2,"Real Bed","TV,Internet,Wireless Internet,Kitchen,Buzzer/wireless intercom,Heating,Family/kid friendly,Washer,Dryer,Smoke detector,Carbon monoxide detector,First aid kit,Safety card,Essentials,Shampoo,24-hour check-in,Hangers,Hair dryer,Iron,Laptop friendly workspace,translation missing: en.hosting_amenity_50",216,NA,75,3,1,100,10,10,10,10,10,10,"strict","Host Has Profile Pic,Host Identity Verified,Is Location Exact,Instant Bookable"
6150310,"Architects Arty Central Bedroom","romantic","2010-11-27","within an hour",100,"London",51.518121627127,-0.0917269544340628,"Apartment","Private room",1,1.5,1,2,"Real Bed","Internet,Wireless Internet,Wheelchair accessible,Kitchen,Smoking allowed,Doorman,Gym,Elevator in building,Buzzer/wireless intercom,Heating,Family/kid friendly,Washer,Dryer,Smoke detector,Carbon monoxide detector,First aid kit,Safety card,Fire extinguisher,Essentials,Shampoo,Hangers,Hair dryer,Iron",85,200,20,1,27,86,9,9,9,9,9,9,"strict","Host Has Profile Pic,Host Identity Verified,Require Guest Phone Verification"
15457388,"Open Plan One Bedroom - St Paul's","none","2014-08-18","within an hour",100,"London",51.5126876322601,-0.105683377146276,"Apartment","Entire home/apt",2,1,1,1,"Real Bed","TV,Cable TV,Internet,Wireless Internet,Kitchen,Elevator in building,Heating,Family/kid friendly,Washer,Dryer,Smoke detector,Carbon monoxide detector,Fire extinguisher,Essentials,Shampoo,24-hour check-in,Hangers,Hair dryer,Iron,Laptop friendly workspace",160,NA,NA,2,1,60,4,4,10,10,4,6,"moderate","Host Has Profile Pic,Host Identity Verified,Is Location Exact,Instant Bookable"
12240352,"1 BED FLAT CENTRAL LONDON**HARRODS*","none","2016-01-04","within a few hours",90,"London",51.494368376874,-0.184899344133462,"House","Entire home/apt",6,1,1,3,"Real Bed","TV,Cable TV,Internet,Wireless Internet,Air conditioning,Kitchen,Doorman,Gym,Breakfast,Elevator in building,Buzzer/wireless intercom,Heating,Family/kid friendly,Washer,Dryer,Smoke detector,Carbon monoxide detector,Essentials,Shampoo,Hangers,Hair dryer,Iron,Laptop friendly workspace",129,250,35,2,5,70,4,6,7,3,9,5,"strict","Host Has Profile Pic,Host Identity Verified"
3492959,"Luxurious one bedroom apartment","none","2014-06-10","",NA,"London",51.4999548211434,-0.209319345654858,"Apartment","Entire home/apt",2,1,1,1,"Real Bed","TV,Cable TV,Internet,Wireless Internet,Kitchen,Heating,Washer,Dryer,Smoke detector,Carbon monoxide detector,Essentials,Shampoo",170,NA,30,2,2,90,9,9,9,10,10,9,"moderate","Host Has Profile Pic,Host Identity Verified,Is Location Exact"
15457830,"Modern 6 sleeper in Upmarket Kensington","none","2016-09-07","within a few hours",100,"London",51.5004339003985,-0.181959349076852,"Apartment","Entire home/apt",4,2,2,2,"Real Bed","TV,Cable TV,Internet,Wireless Internet,Kitchen,Elevator in building,Heating,Family/kid friendly,Smoke detector,Essentials,Shampoo,Hangers,Hair dryer,Iron,Laptop friendly workspace",349,500,NA,1,0,NA,NA,NA,NA,NA,NA,NA,"flexible","Host Has Profile Pic,Is Location Exact"
14741712,"Cosy rooms in cosy penthouse/flat","none","2016-08-25","within a few hours",100,"London",51.5254774421617,-0.211406375408598,"Apartment","Private room",4,1,2,2,"Real Bed","Internet,Wireless Internet,Kitchen,Smoking allowed,Elevator in building,Hot tub,Heating,Family/kid friendly,Washer,Smoke detector,Carbon monoxide detector,First aid kit,Hangers,Iron,Laptop friendly workspace",60,NA,NA,5,0,NA,NA,NA,NA,NA,NA,NA,"flexible","Host Has Profile Pic,Host Identity Verified"
16729101,"8th floor popular Nell Gwynn House studio & views","none","2015-08-27","within an hour",100,"London",51.4927532083532,-0.165360167211416,"Serviced apartment","Entire home/apt",4,1,0,2,"Real Bed","TV,Cable TV,Internet,Wireless Internet,Kitchen,Doorman,Elevator in building,Heating,Family/kid friendly,Washer,Dryer,Smoke detector,Essentials,Shampoo,Lock on bedroom door,24-hour check-in,Hangers,Hair dryer,Iron,Laptop friendly workspace,Private entrance",125,250,60,3,0,NA,NA,NA,NA,NA,NA,NA,"super_strict_30","Host Has Profile Pic,Host Identity Verified,Instant Bookable"
2175410,"Double bedroom in Chelsea","none","2012-06-28","a few days or more",40,"London",51.4844511700973,-0.184929246348276,"Apartment","Private room",2,1,1,1,"Real Bed","TV,Internet,Wireless Internet,Kitchen,Heating,Dryer,Smoke detector,Essentials,Shampoo,Lock on bedroom door,24-hour check-in,Hair dryer,Iron,translation missing: en.hosting_amenity_49,translation missing: en.hosting_amenity_50",43,NA,NA,1,0,NA,NA,NA,NA,NA,NA,NA,"flexible","Host Has Profile Pic,Host Identity Verified,Is Location Exact"
1255294,"Gloucester Road Stunning Light Mews","none","2011-11-30","within an hour",94,"London",51.4941485860959,-0.186271474238175,"House","Entire home/apt",5,1.5,2,2,"Real Bed","TV,Internet,Wireless Internet,Kitchen,Hot tub,Indoor fireplace,Heating,Family/kid friendly,Washer,Dryer,Smoke detector,Carbon monoxide detector,First aid kit,Safety card,Fire extinguisher,Essentials,Shampoo,24-hour check-in,Hangers,Hair dryer,Iron,Laptop friendly workspace",172,500,45,91,49,92,9,9,10,10,10,9,"strict","Host Has Profile Pic,Host Identity Verified,Is Location Exact,Require Guest Profile Picture,Require Guest Phone Verification"
15014508,"Large Chelsea London Studio / 1 Bed","none","2014-11-02","within an hour",99,"London",51.4857571561769,-0.18935747333748,"Apartment","Entire home/apt",2,1,1,1,"Real Bed","Wireless Internet,Kitchen,Washer,Smoke detector,Carbon monoxide detector,First aid kit,Safety card,Fire extinguisher,Essentials,Shampoo,Hair dryer,Iron,translation missing: en.hosting_amenity_49,translation missing: en.hosting_amenity_50",89,NA,NA,1,1,80,10,10,10,10,10,10,"moderate","Host Has Profile Pic,Host Identity Verified"
4118703,"Charming Chelsea, SW3, Kings Road","none","2013-10-24","within an hour",100,"London",51.4843635960455,-0.159670998508981,"House","Private room",2,1,1,1,"Real Bed","TV,Internet,Wireless Internet,Kitchen,Breakfast,Heating,Family/kid friendly,Suitable for events,Washer,Dryer,Smoke detector,Carbon monoxide detector,First aid kit,Fire extinguisher,Essentials,Shampoo",100,NA,10,3,38,94,10,9,10,10,10,9,"flexible","Host Has Profile Pic,Host Identity Verified"
7278666,"Best location! Stunning - 2 bedrooms","none","2015-07-10","within a day",100,"London",51.5129936000793,-0.204473816248125,"Apartment","Entire home/apt",4,1,2,3,"Real Bed","TV,Cable TV,Internet,Wireless Internet,Kitchen,Heating,Family/kid friendly,Washer,Smoke detector,Carbon monoxide detector,Essentials,Shampoo,24-hour check-in,Hangers,Hair dryer,Iron,Laptop friendly workspace",180,200,50,4,10,92,8,9,10,10,10,9,"strict","Host Has Profile Pic,Host Identity Verified"
10223054,"Brand new 2BR apartment in Chelsea","none","2015-12-28","within a few hours",95,"London",51.4828434197191,-0.181097227847562,"Apartment","Entire home/apt",4,2,2,2,"Real Bed","TV,Cable TV,Internet,Wireless Internet,Air conditioning,Kitchen,Pets allowed,Indoor fireplace,Buzzer/wireless intercom,Heating,Family/kid friendly,Suitable for events,Washer,Dryer,Smoke detector,Carbon monoxide detector,First aid kit,Safety card,Essentials,Shampoo,24-hour check-in,Hangers,Hair dryer,Iron,Laptop friendly workspace,translation missing: en.hosting_amenity_50",229,NA,NA,4,3,80,8,9,9,10,10,10,"strict","Host Has Profile Pic,Host Identity Verified,Is Location Exact"
12320032,"Cozy Chelsea Flat","none","2014-09-18","within a few hours",98,"London",51.4895757961617,-0.177237546493676,"Apartment","Entire home/apt",2,1,1,2,"Real Bed","TV,Internet,Wireless Internet,Kitchen,Heating,Family/kid friendly,Washer,Smoke detector,Carbon monoxide detector,First aid kit,Safety card,Fire extinguisher,Essentials,Hangers,Hair dryer,Iron,Laptop friendly workspace",90,NA,NA,3,9,82,8,8,9,9,10,8,"strict","Host Has Profile Pic,Host Identity Verified"
6488415,"Earls Court Studio x3","none","2014-10-21","within a day",82,"London",51.4934709394984,-0.193594350349249,"Apartment","Entire home/apt",3,1,0,2,"Real Bed","TV,Wireless Internet,Kitchen,Heating,Family/kid friendly,Smoke detector,First aid kit,Fire extinguisher,Essentials,Shampoo",105,100,NA,1,10,80,8,8,9,9,8,7,"strict","Host Has Profile Pic,Host Identity Verified,Is Location Exact"
15531470,"Amazing 1 Bed Flat in Trendy Ladbroke Grove","none","2015-03-05","within an hour",100,"London",51.5200887004806,-0.210682584598231,"Apartment","Entire home/apt",4,1,1,2,"Real Bed","TV,Internet,Wireless Internet,Kitchen,Buzzer/wireless intercom,Heating,Smoke detector,Essentials,24-hour check-in,Hangers,Hair dryer,Iron,Laptop friendly workspace,translation missing: en.hosting_amenity_49,translation missing: en.hosting_amenity_50",95,250,55,2,11,93,9,9,10,10,9,9,"strict","Host Has Profile Pic,Host Identity Verified,Is Location Exact,Instant Bookable"
588959,"Best Apartment in Kensington !","none","2012-07-11","within an hour",100,"London",51.4927610816725,-0.199793284055296,"Apartment","Private room",2,2,1,1,"Real Bed","TV,Cable TV,Internet,Wireless Internet,Air conditioning,Kitchen,Indoor fireplace,Buzzer/wireless intercom,Heating,Family/kid friendly,Washer,Dryer,Smoke detector,Carbon monoxide detector,Essentials,Shampoo,24-hour check-in,Hangers,Hair dryer,Iron,Laptop friendly workspace",90,120,29,2,62,89,9,10,9,9,9,9,"moderate","Host Has Profile Pic,Host Identity Verified,Is Location Exact,Require Guest Phone Verification"
3603306,"Great 2bedroom flat Central London","family","2014-07-15","within an hour",100,"London",51.5088260434733,-0.200659875905728,"Apartment","Entire home/apt",7,2,2,6,"Real Bed","TV,Cable TV,Internet,Wireless Internet,Kitchen,Heating,Washer,Smoke detector,Carbon monoxide detector,First aid kit,Safety card,Fire extinguisher,Essentials,Shampoo,24-hour check-in,Hangers,Hair dryer,Iron,Laptop friendly workspace,translation missing: en.hosting_amenity_49,translation missing: en.hosting_amenity_50",111,250,45,1,42,77,9,7,9,9,9,8,"strict","Host Has Profile Pic,Host Identity Verified,Instant Bookable"
12777380,"Cosy Ensuite in Knightsbridge-Mews","none","2015-07-13","within a day",100,"London",51.4971512032691,-0.165394264340844,"House","Private room",2,1,1,2,"Real Bed","TV,Internet,Wireless Internet,Kitchen,Heating,Family/kid friendly,Washer,Dryer,First aid kit,Safety card,Essentials,Shampoo,Hair dryer,Iron,Laptop friendly workspace",86,NA,17,3,9,93,10,9,9,10,10,10,"flexible","Host Has Profile Pic,Host Identity Verified,Is Location Exact"
7531454,"LUXURY FLAT KNIGHTSBRIDGE/ CHELSEA","none","2015-07-24","within a few hours",100,"London",51.499823221789,-0.193455032507344,"Apartment","Entire home/apt",2,1,1,1,"Real Bed","TV,Cable TV,Internet,Wireless Internet,Kitchen,Doorman,Elevator in building,Heating,Washer,Dryer,Smoke detector,Essentials",140,300,100,7,2,100,10,10,10,10,10,9,"strict","Host Has Profile Pic,Host Identity Verified"
7793445,"London Earls Court - Longridge Road","none","2015-03-30","within a few hours",91,"London",51.493212971111,-0.197845818152017,"Apartment","Entire home/apt",2,1,0,1,"Real Bed","TV,Internet,Wireless Internet,Kitchen,Breakfast,Buzzer/wireless intercom,Heating,Family/kid friendly,Washer,Dryer,Smoke detector,Carbon monoxide detector,Safety card,Fire extinguisher,Essentials,Shampoo",120,NA,30,4,10,82,8,10,9,8,10,9,"strict","Host Has Profile Pic,Host Identity Verified,Is Location Exact"
9752669,"Chelsea, London - Designer's flat 3","none","2015-07-21","",NA,"London",51.487092194964,-0.168096713237108,"Apartment","Private room",2,1,1,1,"Real Bed","Internet,Wireless Internet,Kitchen,Hot tub,Heating,Family/kid friendly,Essentials",65,100,10,3,1,80,10,10,10,10,10,10,"strict","Host Has Profile Pic,Is Location Exact"
5429171,"Welcoming Flat in Notting Hill with Concierge","none","2014-02-05","within a day",90,"London",51.5235728437375,-0.217687703259579,"Apartment","Entire home/apt",6,2,2,2,"Real Bed","TV,Internet,Wireless Internet,Wheelchair accessible,Kitchen,Smoking allowed,Doorman,Elevator in building,Buzzer/wireless intercom,Heating,Family/kid friendly,Washer,Dryer,Smoke detector,Carbon monoxide detector,Fire extinguisher,Essentials,24-hour check-in,Hair dryer",130,NA,35,5,52,90,10,9,9,9,9,9,"strict","Host Has Profile Pic,Host Identity Verified,Is Location Exact,Instant Bookable"
4118085,"A Very Clean 2 Bed Flat in Chelsea","none","2014-04-30","within an hour",100,"London",51.4845084265931,-0.185639923511611,"Apartment","Entire home/apt",2,1,2,2,"Real Bed","TV,Internet,Wireless Internet,Kitchen,Heating,Family/kid friendly,Washer,Dryer,Smoke detector,Carbon monoxide detector,First aid kit,Safety card,Fire extinguisher,Essentials,Shampoo,24-hour check-in,Hangers,Hair dryer,Iron,Laptop friendly workspace,translation missing: en.hosting_amenity_49,translation missing: en.hosting_amenity_50",130,500,30,2,3,100,10,10,10,9,10,9,"strict","Host Has Profile Pic,Host Identity Verified,Is Location Exact"
13554621,"375 High St Kensington","none","2014-05-19","a few days or more",40,"London",51.4954695480178,-0.205191553110565,"Apartment","Entire home/apt",3,1,1,1,"Real Bed","TV,Wireless Internet,Air conditioning,Pool,Kitchen,Gym,Elevator in building,Hot tub,Indoor fireplace,Heating,Family/kid friendly,Washer,Dryer,Smoke detector,Carbon monoxide detector,First aid kit,Safety card,Fire extinguisher,Hangers,Laptop friendly workspace",180,996,40,2,1,100,10,10,10,10,10,10,"moderate","Host Has Profile Pic,Host Identity Verified,Is Location Exact"
5732228,"Short Let 27 Feb to 21 March £185 pw.","none","2013-11-01","",NA,"London",51.5205700502898,-0.204812600579796,"Apartment","Private room",1,1,1,1,"Real Bed","Internet,Wireless Internet,Kitchen,Hot tub,Heating,Washer",45,300,20,14,2,100,10,8,10,10,10,10,"strict","Host Has Profile Pic,Is Location Exact"
11715442,"Beautiful Top Floor Flat","none","2014-05-20","within a day",50,"London",51.5188382496446,-0.211443169895413,"Apartment","Private room",1,1,1,1,"Real Bed","Internet,Wireless Internet,Air conditioning,Kitchen,Buzzer/wireless intercom,Heating,Washer,Dryer,Smoke detector,Essentials,Lock on bedroom door,Hangers,Hair dryer",42,500,NA,1,1,80,10,6,8,6,10,6,"flexible","Host Has Profile Pic,Is Location Exact"
16036830,"Couch surf in friendly home in West London","none","2015-04-19","within a day",80,"London",51.5200696335898,-0.220910223991968,"Apartment","Shared room",1,1,1,1,"Pull-out Sofa","TV,Wireless Internet,Kitchen,Breakfast,Heating,Washer,Dryer,Smoke detector,Carbon monoxide detector,Essentials,Shampoo,Hair dryer,translation missing: en.hosting_amenity_49,translation missing: en.hosting_amenity_50",20,81,5,1,4,100,10,10,10,10,10,10,"flexible","Host Has Profile Pic,Host Identity Verified"
12887488,"Chelsea and Kensighton pad","none","2016-04-23","",NA,"London",51.4880862152912,-0.192119935991283,"Apartment","Private room",1,1.5,1,1,"Real Bed","Hot tub,Buzzer/wireless intercom,Washer,Dryer,Hangers,Hair dryer,Iron,Laptop friendly workspace,translation missing: en.hosting_amenity_49,translation missing: en.hosting_amenity_50",50,300,20,1,0,NA,NA,NA,NA,NA,NA,NA,"flexible","Host Has Profile Pic,Is Location Exact"
12719988,"Up to 20% off! Cobbled Pastel Mews","none","2015-05-21","within a few hours",98,"London",51.5137702247836,-0.198600794937036,"House","Entire home/apt",6,1,3,4,"Real Bed","TV,Internet,Wireless Internet,Kitchen,Heating,Family/kid friendly,Washer,Smoke detector,Essentials,Iron,translation missing: en.hosting_amenity_50",387,495,145,3,0,NA,NA,NA,NA,NA,NA,NA,"strict","Host Has Profile Pic,Host Identity Verified,Is Location Exact,Instant Bookable"
16156282,"Modern Studio, Chelsea Cloisters, South Kensington","none","2015-12-20","within an hour",63,"London",51.4917211759626,-0.166978810660963,"Apartment","Entire home/apt",2,1,0,1,"Real Bed","TV,Kitchen,Pets allowed,Elevator in building,Heating,Washer,Dryer,Smoke detector,Essentials,Lock on bedroom door,Hangers,Laptop friendly workspace,translation missing: en.hosting_amenity_49,translation missing: en.hosting_amenity_50",100,NA,NA,1,1,80,10,8,10,10,10,8,"flexible","Host Has Profile Pic,Instant Bookable"
6844576,"En-suite rm in Chelsea for July","none","2013-07-07","",NA,"London",51.4821011031836,-0.183841454045017,"Apartment","Private room",1,1,1,1,"Real Bed","TV,Internet,Wireless Internet,Kitchen,Doorman,Elevator in building,Buzzer/wireless intercom,Heating,Washer,Dryer,Essentials",53,90,20,1,1,100,10,8,10,10,10,10,"flexible","Host Has Profile Pic,Host Identity Verified,Is Location Exact"
4222843,"Hyde Park - High Street Kensington","none","2013-03-26","within a day",82,"London",51.5043554322855,-0.190823609310667,"Apartment","Entire home/apt",4,1,2,3,"Real Bed","Wireless Internet,Kitchen,Hot tub,Heating,Family/kid friendly,Washer,Dryer,Essentials,Shampoo",200,NA,NA,2,9,98,10,9,10,10,10,10,"strict","Host Has Profile Pic,Host Identity Verified"
16280004,"Large Double Room w/ Feat Fireplace in Chelsea","none","2016-07-20","within a day",50,"London",51.4804441735847,-0.181300660938406,"House","Private room",2,1,1,1,"Real Bed","TV,Wireless Internet,Kitchen,Smoking allowed,Heating,Washer,Smoke detector,Carbon monoxide detector,Essentials,Hangers,Iron,translation missing: en.hosting_amenity_49,translation missing: en.hosting_amenity_50",50,300,NA,3,1,40,4,2,8,8,8,2,"flexible","Host Has Profile Pic,Is Location Exact,Instant Bookable"
5921868,"Pretty Garden View Central London","none","2014-07-23","within a few hours",100,"London",51.4980394632056,-0.204685354328263,"Apartment","Entire home/apt",2,1,0,1,"Real Bed","TV,Wireless Internet,Kitchen,Doorman,Elevator in building,Hot tub,Buzzer/wireless intercom,Heating,Washer,Essentials,Shampoo,Iron",75,750,80,10,3,90,10,10,10,10,10,10,"strict","Host Has Profile Pic,Host Identity Verified,Is Location Exact"
17323503,"4 bedroom in knightsbridge","none","2016-09-02","within an hour",100,"London",51.4992470487964,-0.163406049143557,"Apartment","Entire home/apt",7,3.5,4,4,"Real Bed","TV,Wireless Internet,Kitchen,Elevator in building,Family/kid friendly,Washer,Dryer,Fire extinguisher,Hangers,Iron",350,450,75,3,0,NA,NA,NA,NA,NA,NA,NA,"moderate","Host Has Profile Pic,Host Identity Verified,Is Location Exact"
14478029,"The Kensington Bina Gardens","none","2011-11-22","within an hour",99,"London",51.4914696430964,-0.183837959806764,"Apartment","Entire home/apt",4,1,1,2,"Real Bed","TV,Internet,Wireless Internet,Kitchen,Heating,Washer,Smoke detector,Carbon monoxide detector,Essentials,Shampoo,24-hour check-in,Hangers,Hair dryer,Iron,Laptop friendly workspace",119,NA,55,2,23,92,9,9,9,9,9,9,"moderate","Host Has Profile Pic,Host Identity Verified,Is Location Exact,Require Guest Phone Verification"
10373065,"Stunning apartment perfect location","none","2016-01-05","within an hour",94,"London",51.5097277445062,-0.19820521918999,"Apartment","Entire home/apt",6,1,3,6,"Real Bed","TV,Cable TV,Internet,Wireless Internet,Kitchen,Pets allowed,Buzzer/wireless intercom,Heating,Family/kid friendly,Washer,Dryer,Smoke detector,Carbon monoxide detector,Essentials,Shampoo,24-hour check-in,Hangers,Hair dryer,Iron,Laptop friendly workspace",110,NA,NA,3,12,95,10,10,10,10,10,10,"strict","Host Has Profile Pic,Is Location Exact,Instant Bookable"
17080800,"3 BR MEWS HOUSE - MARYLEBONE AREA - BAKER ST - 92","none","2011-10-05","within a day",98,"London",51.5204226995983,-0.163674614226632,"Apartment","Entire home/apt",6,2.5,3,3,"Real Bed","TV,Cable TV,Internet,Wireless Internet,Kitchen,Heating,Washer,Dryer,Smoke detector,Carbon monoxide detector,Safety card,Essentials,Shampoo,Hangers,Hair dryer,Iron,Laptop friendly workspace",200,400,130,1,0,NA,NA,NA,NA,NA,NA,NA,"strict","Host Has Profile Pic,Host Identity Verified,Require Guest Phone Verification"
13541918,"Spacious Three Bedroom Apartment Paddington-P3602","none","2016-02-18","within a day",70,"London",51.5169889954221,-0.171084762167058,"Apartment","Entire home/apt",7,2,3,4,"Real Bed","TV,Wireless Internet,Kitchen,Buzzer/wireless intercom,Heating,Family/kid friendly,Smoke detector,Carbon monoxide detector,Fire extinguisher,Essentials,Shampoo,Hangers,Hair dryer,Iron,Laptop friendly workspace",175,300,NA,3,1,80,10,6,10,8,10,8,"strict","Host Has Profile Pic"
3655089,"2 Bed - Hyde Park, Lancaster Gate, Paddington","social","2014-07-20","within a day",100,"London",51.5140087212714,-0.17522037358211,"Apartment","Entire home/apt",5,2,2,3,"Real Bed","TV,Internet,Wireless Internet,Kitchen,Free parking on premises,Buzzer/wireless intercom,Heating,Family/kid friendly,Washer,Dryer,Smoke detector,Carbon monoxide detector,Fire extinguisher,Essentials,Shampoo,24-hour check-in,Hangers,Hair dryer,Iron,Laptop friendly workspace",175,300,50,90,19,100,10,10,10,10,10,10,"strict","Host Is Superhost,Host Has Profile Pic,Host Identity Verified,Is Location Exact"
14459796,"Comfortable cosy and clean double","none","2015-05-30","within an hour",97,"London",51.5151365726477,-0.193848802319895,"Apartment","Private room",2,1,1,1,"Real Bed","TV,Internet,Wireless Internet,Kitchen,Buzzer/wireless intercom,Heating,Washer,Smoke detector,Carbon monoxide detector,Fire extinguisher,Essentials,Shampoo,Lock on bedroom door,Hangers,Hair dryer,Iron,Laptop friendly workspace",60,NA,10,6,20,81,8,9,9,8,9,8,"strict","Host Has Profile Pic,Host Identity Verified,Instant Bookable"
874329,"Central London - Oxford St & Soho","none","2011-08-20","within an hour",100,"London",51.5172120739276,-0.1347566033774,"Apartment","Private room",2,2,1,1,"Real Bed","TV,Internet,Wireless Internet,Kitchen,Indoor fireplace,Buzzer/wireless intercom,Heating,Family/kid friendly,Washer,Smoke detector,Carbon monoxide detector,First aid kit,Safety card,Fire extinguisher,Essentials,Shampoo,24-hour check-in,Hangers,Hair dryer,Iron,Laptop friendly workspace,translation missing: en.hosting_amenity_50,Self Check-In,Lockbox",69,75,20,2,250,95,10,10,10,10,10,9,"strict","Host Has Profile Pic,Host Identity Verified,Is Location Exact,Instant Bookable,Require Guest Phone Verification"
16953059,"Two-Bedroom Mezzanine Loft Suite","none","2016-07-25","within a day",100,"London",51.5145496721026,-0.142258204086511,"Apartment","Entire home/apt",4,1,2,2,"Real Bed","TV,Wireless Internet,Air conditioning,Kitchen,Heating,Family/kid friendly,Smoke detector,Carbon monoxide detector,Fire extinguisher,Essentials,Shampoo,Hair dryer,Iron,Laptop friendly workspace",525,NA,NA,2,0,NA,NA,NA,NA,NA,NA,NA,"flexible","Host Has Profile Pic,Is Location Exact"
9442211,"Central London Flat","none","2015-11-13","within a few hours",100,"London",51.4947045350051,-0.142654126778377,"Apartment","Entire home/apt",2,1,1,1,"Real Bed","TV,Internet,Wireless Internet,Kitchen,Elevator in building,Buzzer/wireless intercom,Heating,Smoke detector,Carbon monoxide detector,Essentials,Shampoo,24-hour check-in,Hangers,Hair dryer,Iron,Laptop friendly workspace,translation missing: en.hosting_amenity_49,translation missing: en.hosting_amenity_50",120,100,15,1,18,97,10,10,10,10,10,10,"strict","Host Is Superhost,Host Has Profile Pic,Host Identity Verified,Is Location Exact"
16167359,"Cosy two bedroom in marylebone","none","2012-12-04","within a day",67,"London",51.5203109991843,-0.160339233498857,"Apartment","Entire home/apt",4,1,2,2,"Real Bed","Internet,Wireless Internet,Kitchen,Hot tub,Buzzer/wireless intercom,Heating,Washer,Dryer,Smoke detector,Carbon monoxide detector,Essentials,Shampoo,24-hour check-in,Hangers,Hair dryer,Iron,Laptop friendly workspace",130,NA,NA,1,1,40,6,4,4,4,10,4,"flexible","Host Has Profile Pic,Host Identity Verified"
10400146,"On Offer amazing apartment in Bayswater, W2.","none","2015-08-26","within an hour",100,"London",51.5152282843215,-0.188449458383492,"Apartment","Entire home/apt",8,1,2,4,"Real Bed","TV,Internet,Wireless Internet,Wheelchair accessible,Kitchen,Doorman,Elevator in building,Buzzer/wireless intercom,Heating,Family/kid friendly,Washer,Smoke detector,Carbon monoxide detector,First aid kit,Safety card,Essentials,Shampoo,24-hour check-in,Hangers,Hair dryer,Iron,Laptop friendly workspace",175,NA,60,2,65,90,9,9,10,10,10,9,"moderate","Host Has Profile Pic,Host Identity Verified"
16807609,"ELEGANT FLAT BY TRAFALGAR SQUARE AND BIG BEN - 120","none","2011-10-05","within a day",98,"London",51.5052661117584,-0.125057875685943,"Apartment","Entire home/apt",4,1,1,2,"Real Bed","TV,Cable TV,Internet,Wireless Internet,Kitchen,Elevator in building,Heating,Washer,Dryer,Smoke detector,Carbon monoxide detector,Safety card,Essentials,Shampoo,24-hour check-in,Hangers,Hair dryer,Iron,Laptop friendly workspace",120,200,60,1,0,NA,NA,NA,NA,NA,NA,NA,"strict","Host Has Profile Pic,Host Identity Verified,Require Guest Phone Verification"
8434529,"Central London Marylebone: 1 Bed Panoramic Views","none","2015-09-17","",NA,"London",51.5221946550983,-0.154495952451661,"Apartment","Entire home/apt",3,1,1,2,"Real Bed","TV,Wireless Internet,Kitchen,Elevator in building,Buzzer/wireless intercom,Heating,Washer,Dryer,Smoke detector,Carbon monoxide detector,Fire extinguisher,Essentials,Shampoo",130,200,NA,3,6,87,10,9,10,10,10,9,"strict","Host Has Profile Pic"
