"ID","Name","Experiences.Offered","Host.Since","Host.Response.Time","Host.Response.Rate","City","Latitude","Longitude","Property.Type","Room.Type","Accommodates","Bathrooms","Bedrooms","Beds","Bed.Type","Amenities","Price","Security.Deposit","Cleaning.Fee","Minimum.Nights","Number.of.Reviews","Review.Scores.Rating","Review.Scores.Accuracy","Review.Scores.Cleanliness","Review.Scores.Checkin","Review.Scores.Communication","Review.Scores.Location","Review.Scores.Value","Cancellation.Policy","Features"
5795622,"Trastevere Suite Inn","none","2015-03-26","",NA,"Roma",41.8870336185422,12.4779043063372,"Apartment","Entire home/apt",4,1,1,1,"Real Bed","TV,Wireless Internet,Air conditioning,Kitchen,Heating,Family/kid friendly,Washer,First aid kit,Fire extinguisher,Essentials,Shampoo,Hangers,Hair dryer,Iron,Laptop friendly workspace",130,NA,NA,3,1,100,10,10,10,10,10,10,"flexible_new","Host Has Profile Pic,Is Location Exact"
4133997,"Cozy studio in Trastevere","none","2011-10-31","within a day",90,"Roma",41.8891263178726,12.4681946224339,"Apartment","Entire home/apt",2,1,1,1,"Real Bed","TV,Cable TV,Internet,Wireless Internet,Air conditioning,Kitchen,Heating,Washer,Essentials",95,NA,15,1,38,97,10,10,10,10,10,10,"moderate_new","Host Has Profile Pic,Host Identity Verified"
12691601,"Gordon's Apartment","none","2016-04-26","within an hour",100,"Roma",41.8920889682722,12.5107660441923,"Apartment","Entire home/apt",4,1,2,3,"Real Bed","TV,Wireless Internet,Air conditioning,Kitchen,Smoking allowed,Heating,Family/kid friendly,Washer",70,NA,NA,1,18,81,8,9,8,8,9,8,"moderate_new","Is Location Exact,Instant Bookable"
7171703,"Room 4 ""New Guest House Roma""B&B","none","2015-07-05","within a day",100,"Roma",41.886886597141,12.5086707748847,"Apartment","Private room",2,1,1,1,"Real Bed","TV,Wireless Internet,Air conditioning,Breakfast,Elevator in building,Buzzer/wireless intercom,Heating,Family/kid friendly,Smoke detector,First aid kit,Fire extinguisher,Essentials",53,NA,NA,1,1,60,8,10,8,8,10,8,"flexible_new","Host Has Profile Pic,Host Identity Verified,Is Location Exact"
17569163,"Chic House Apartment - San Pietro","none","2017-03-05","within an hour",100,"Roma",41.9098896306155,12.4467280005924,"Apartment","Entire home/apt",8,2,2,4,"Real Bed","TV,Internet,Wireless Internet,Air conditioning,Kitchen,Elevator in building,Heating,Family/kid friendly,Washer,First aid kit,Essentials,Hangers,Hair dryer,High chair",78,100,25,2,2,100,10,10,10,10,10,10,"moderate_new","Host Has Profile Pic,Is Location Exact,Instant Bookable"
5804299,"Trastevere 360","none","2013-05-12","within an hour",100,"Roma",41.8896975780888,12.4716759868215,"Apartment","Entire home/apt",4,2,1,2,"Real Bed","TV,Wireless Internet,Air conditioning,Kitchen,Family/kid friendly,Essentials",119,200,40,3,6,97,9,10,10,10,10,10,"flexible_new","Host Has Profile Pic,Is Location Exact,Instant Bookable"
12151322,"Stanza singola a Musei Vaticani","none","2013-08-08","",NA,"Roma",41.9080951823634,12.4493434971043,"Apartment","Private room",1,1,1,1,"Real Bed","TV,Internet,Wireless Internet,Kitchen,Smoking allowed,Doorman,Elevator in building,Heating,Family/kid friendly,Washer,Lock on bedroom door,Hangers,Iron,Laptop friendly workspace",30,100,NA,7,0,NA,NA,NA,NA,NA,NA,NA,"flexible_new","Host Has Profile Pic"
10515869,"SUPERIOR Room with INTERNAL BATHROOM","none","2014-02-22","within a few hours",100,"Roma",41.8914051108715,12.5142011570026,"Apartment","Private room",2,1,1,1,"Real Bed","TV,Internet,Wireless Internet,Air conditioning,Kitchen,Free parking on premises,Elevator in building,Heating,Family/kid friendly,Essentials,24-hour check-in,Hair dryer,Laptop friendly workspace",52,NA,NA,1,9,84,8,9,9,9,8,8,"moderate_new","Host Has Profile Pic,Is Location Exact"
6855985,"Camera quadrupla","none","2014-09-25","within an hour",100,"Roma",41.8917589784854,12.5127889480281,"Bed & Breakfast","Private room",4,1,1,3,"Real Bed","TV,Air conditioning,Family/kid friendly",99,NA,NA,1,0,NA,NA,NA,NA,NA,NA,NA,"flexible_new","Host Has Profile Pic,Host Identity Verified,Is Location Exact,Instant Bookable"
17087445,"Trevi Apartment","none","2016-08-27","within an hour",100,"Roma",41.9024818823837,12.485774608176,"Apartment","Entire home/apt",6,1.5,2,4,"Real Bed","TV,Internet,Wireless Internet,Air conditioning,Kitchen,Pets allowed,Heating,Family/kid friendly,Washer,Essentials,Shampoo,Hangers,Hair dryer,Iron,Laptop friendly workspace",150,NA,65,2,6,97,10,10,10,10,10,10,"moderate_new","Host Has Profile Pic,Host Identity Verified,Is Location Exact,Instant Bookable"
10650508,"Roma center, Matisse B&B","none","2014-08-15","a few days or more",30,"Roma",41.9012124581425,12.4953239301428,"Bed & Breakfast","Private room",2,1,1,1,"Real Bed","Wireless Internet,Air conditioning,Doorman,Breakfast,Elevator in building,Heating,Family/kid friendly,Essentials,Lock on bedroom door,Hangers,Hair dryer,Iron,Laptop friendly workspace",72,90,8,1,1,100,10,10,10,10,10,10,"moderate_new","Host Has Profile Pic,Host Identity Verified"
17132732,"PANORAMIC PENTHOUSE TRASTEVERE, STYLISH & ROMANTIC","none","2014-10-19","within an hour",100,"Roma",41.8908846346294,12.4669012907943,"Apartment","Entire home/apt",2,1,1,1,"Real Bed","TV,Internet,Wireless Internet,Air conditioning,Kitchen,Breakfast,Heating,Family/kid friendly,Washer,Essentials,Hangers,Hair dryer,Iron,Laptop friendly workspace,translation missing: en.hosting_amenity_50",80,300,NA,3,7,100,10,10,10,10,10,10,"strict_new","Host Has Profile Pic,Host Identity Verified"
17358335,"Appartamento spazioso e tranquillo al centro.","none","2013-01-16","",NA,"Roma",41.8982356745311,12.5047326790303,"Bed & Breakfast","Private room",2,1,1,1,"Real Bed","TV,Wireless Internet,Elevator in building,Heating,Family/kid friendly,First aid kit,Fire extinguisher,Essentials,Shampoo,Hangers,Hair dryer,Iron,Laptop friendly workspace,translation missing: en.hosting_amenity_50,Private living room",120,100,30,1,0,NA,NA,NA,NA,NA,NA,NA,"moderate_new","Host Has Profile Pic,Host Identity Verified,Instant Bookable"
7402084,"Tourist House B&B Family room","none","2014-11-15","within a few hours",100,"Roma",41.8949740736862,12.491555817212,"Bed & Breakfast","Private room",4,1,1,3,"Real Bed","TV,Internet,Wireless Internet,Air conditioning,Breakfast,Elevator in building,Heating,First aid kit,Essentials,Shampoo",100,NA,NA,2,0,NA,NA,NA,NA,NA,NA,NA,"moderate_new","Host Has Profile Pic,Is Location Exact"
4890145,"Piazza Venezia Junior Suite","none","2014-05-04","within a day",100,"Roma",41.897744967951,12.4831202708513,"Apartment","Entire home/apt",4,1,1,2,"Real Bed","TV,Internet,Wireless Internet,Air conditioning,Kitchen,Elevator in building,Heating,Family/kid friendly,Washer,Smoke detector,Carbon monoxide detector,First aid kit,Fire extinguisher,Essentials,Shampoo,24-hour check-in,Hangers,Hair dryer,Iron,Laptop friendly workspace,Self Check-In,Doorman Entry",170,200,60,2,14,93,10,10,10,10,10,9,"strict_new","Host Has Profile Pic,Is Location Exact"
13793268,"Amazing Indipendent Room in Pigneto","none","2016-04-08","within an hour",97,"Roma",41.8892195955452,12.529258752889,"Apartment","Private room",2,1,1,1,"Real Bed","TV,Wireless Internet,Air conditioning,Heating,Family/kid friendly,First aid kit,Fire extinguisher,Essentials,Shampoo,Lock on bedroom door,24-hour check-in,Hangers,Hair dryer,Laptop friendly workspace",45,NA,NA,1,21,92,10,9,9,10,9,9,"moderate_new","Host Has Profile Pic,Host Identity Verified,Instant Bookable"
6798027,"Mancini Shabby House Double Room","none","2015-06-09","within a day",100,"Roma",41.8765272261665,12.53989140861,"Bed & Breakfast","Private room",2,1,1,1,"Real Bed","TV,Wireless Internet,Air conditioning,Heating,First aid kit,Fire extinguisher,Essentials,Shampoo",24,NA,NA,1,3,73,9,7,8,8,5,7,"moderate_new","Host Has Profile Pic,Host Identity Verified,Is Location Exact"
10247439,"Appartamento in zona Collatina","none","2015-12-29","",NA,"Roma",41.8988064058913,12.5627594243133,"Apartment","Private room",3,1,1,3,"Real Bed","Kitchen,Doorman,Elevator in building,Heating,Washer,Safety card,Essentials,Shampoo",40,NA,NA,3,0,NA,NA,NA,NA,NA,NA,NA,"flexible_new","Host Has Profile Pic"
14439098,"Pretty single/double room","none","2013-12-29","",NA,"Roma",41.8927751601463,12.5718070499588,"Condominium","Private room",2,1,1,2,"Real Bed","Wireless Internet,Kitchen,Free parking on premises,Smoking allowed,Pets allowed,Elevator in building,Heating,Suitable for events,Washer,Essentials,Hangers,Hair dryer,Iron,Laptop friendly workspace,translation missing: en.hosting_amenity_49,translation missing: en.hosting_amenity_50",35,NA,NA,1,0,NA,NA,NA,NA,NA,NA,NA,"flexible_new","Host Has Profile Pic,Is Location Exact,Instant Bookable"
10112862,"Sunny Actress Room  with rich breakfast :))","none","2014-08-02","within an hour",100,"Roma",41.8877284515949,12.5291508432534,"Apartment","Private room",2,1,1,2,"Real Bed","Internet,Wireless Internet,Kitchen,Smoking allowed,Pets allowed,Doorman,Breakfast,Elevator in building,Heating,Family/kid friendly,Washer,Shampoo,Hair dryer,Iron,translation missing: en.hosting_amenity_50",50,NA,10,2,21,98,10,10,10,10,9,10,"moderate_new","Host Is Superhost,Host Has Profile Pic,Is Location Exact"
8075753,"Yellow Room","none","2015-07-30","within a few hours",100,"Roma",41.8837911573378,12.5399220505565,"Bed & Breakfast","Private room",2,1,1,1,"Real Bed","TV,Internet,Wireless Internet,Air conditioning,Wheelchair accessible,Kitchen,Free parking on premises,Smoking allowed,Pets allowed,Breakfast,Heating,Family/kid friendly,Suitable for events,Washer,First aid kit,Fire extinguisher,Essentials,Shampoo,Hangers,Hair dryer,Laptop friendly workspace",40,NA,NA,1,2,100,9,9,10,10,9,9,"flexible_new","Host Has Profile Pic"
10893028,"Poet's loft with garden. Subway A.","none","2015-04-13","within an hour",100,"Roma",41.8719141266541,12.5464895567496,"Loft","Entire home/apt",4,1,1,2,"Real Bed","TV,Wireless Internet,Kitchen,Smoking allowed,Breakfast,Buzzer/wireless intercom,Heating,Family/kid friendly,Washer,Essentials,Shampoo,Hangers,Hair dryer,Iron,Laptop friendly workspace",55,NA,20,2,18,97,10,10,10,10,9,10,"moderate_new","Host Is Superhost,Host Has Profile Pic,Host Identity Verified,Is Location Exact"
4921706,"Pigneto Apartement - Casa Vacanze Susy + Wifi","none","2014-12-29","",NA,"Roma",41.8846360505682,12.5414567736466,"Apartment","Entire home/apt",2,1,1,2,"Real Bed","TV,Cable TV,Internet,Wireless Internet,Air conditioning,Wheelchair accessible,Kitchen,Free parking on premises,Pets allowed,Breakfast,Elevator in building,Heating,Family/kid friendly,Washer,Smoke detector,Carbon monoxide detector,First aid kit,Safety card,Fire extinguisher,Essentials,Shampoo,24-hour check-in,Hangers,Hair dryer,Iron,Laptop friendly workspace,Children’s books and toys,Room-darkening shades",50,150,30,2,38,94,10,10,10,10,8,9,"moderate_new","Host Has Profile Pic,Host Identity Verified,Is Location Exact"
10621587,"camera per 3","none","2015-12-31","",NA,"Roma",41.8776511339954,12.5397914245077,"Apartment","Entire home/apt",3,1,1,3,"Real Bed","TV,Cable TV,Wireless Internet,Heating,Family/kid friendly,First aid kit,Essentials,Shampoo,Lock on bedroom door,24-hour check-in,Hangers,Hair dryer,Laptop friendly workspace",40,NA,NA,1,1,100,10,10,10,10,8,10,"moderate_new","Host Has Profile Pic,Is Location Exact"
16935410,"Vittorio Emanuele Bright 2BR Apartment with WIFI","none","2016-02-10","within an hour",100,"Roma",41.8949477653583,12.5022999368472,"Apartment","Entire home/apt",6,2,2,3,"Real Bed","TV,Internet,Wireless Internet,Air conditioning,Kitchen,Elevator in building,Heating,Washer,Essentials,Hangers,Hair dryer,Iron,Laptop friendly workspace,Private entrance",99,NA,65,2,0,NA,NA,NA,NA,NA,NA,NA,"strict_new","Host Has Profile Pic,Is Location Exact,Instant Bookable"
5663122,"Apartment with terrace","none","2013-09-21","within an hour",100,"Roma",41.8970453266784,12.4701224396074,"Apartment","Entire home/apt",2,1,1,1,"Real Bed","TV,Internet,Wireless Internet,Air conditioning,Kitchen,Heating,Family/kid friendly,Essentials,Shampoo,Hangers,Hair dryer,Laptop friendly workspace",40,NA,40,3,46,92,9,9,10,10,10,9,"moderate_new","Host Has Profile Pic,Host Identity Verified,Instant Bookable"
5728470,"RIONE S.ANGELO, IL CUORE DI ROMA...","none","2015-03-20","within an hour",100,"Roma",41.8921332441293,12.4783442913731,"Apartment","Entire home/apt",6,1,2,4,"Real Bed","TV,Wireless Internet,Air conditioning,Kitchen,Heating,Family/kid friendly,Washer,Essentials,Hair dryer,Iron,High chair,Pack ’n Play/travel crib",150,150,50,3,2,90,9,9,9,9,10,9,"strict_new","Host Has Profile Pic,Is Location Exact,Instant Bookable"
11112745,"Design Suite San Pietro","none","2016-02-07","within an hour",100,"Roma",41.9070289569435,12.4599386633914,"Bed & Breakfast","Private room",2,1,1,1,"Real Bed","TV,Cable TV,Internet,Wireless Internet,Air conditioning,Doorman,Elevator in building,Heating,Family/kid friendly,Smoke detector,First aid kit,Safety card,Fire extinguisher,Essentials,Shampoo,Lock on bedroom door,24-hour check-in,Hangers,Hair dryer,Laptop friendly workspace",100,150,NA,1,6,93,10,10,9,8,10,9,"flexible_new","Host Has Profile Pic,Host Identity Verified,Is Location Exact,Instant Bookable"
6776128,"Charme & Chic - Luxury B&B","none","2015-01-06","within a few hours",100,"Roma",41.9054040946776,12.4780015097485,"Bed & Breakfast","Private room",2,1,1,1,"Real Bed","TV,Internet,Wireless Internet,Air conditioning,Breakfast,Elevator in building,Heating,Smoke detector,First aid kit,Fire extinguisher,Essentials,Shampoo",110,NA,NA,1,2,100,10,10,8,8,10,10,"flexible_new","Host Has Profile Pic,Host Identity Verified"
16213163,"Al vicolo - cozy apartment in the heart of Rome","none","2014-10-06","within an hour",96,"Roma",41.898359605967,12.4660441414145,"Apartment","Entire home/apt",4,1,1,1,"Real Bed","TV,Wireless Internet,Air conditioning,Kitchen,Heating,Family/kid friendly,Washer,Essentials,Shampoo,Hangers,Hair dryer,Iron,Laptop friendly workspace",90,150,50,3,1,100,10,10,10,10,10,10,"moderate_new","Host Has Profile Pic,Host Identity Verified,Is Location Exact,Instant Bookable"
14770795,"Monti Brand New Apartment","none","2014-11-09","within an hour",100,"Roma",41.8968418493381,12.494039995338,"Apartment","Entire home/apt",7,2,3,4,"Real Bed","TV,Internet,Wireless Internet,Air conditioning,Kitchen,Heating,Family/kid friendly,Washer,First aid kit,Fire extinguisher,Essentials,Shampoo,Lock on bedroom door,24-hour check-in,Hangers,Hair dryer,Iron,Laptop friendly workspace,translation missing: en.hosting_amenity_50",120,NA,55,2,41,97,10,10,10,10,10,10,"strict_new","Host Has Profile Pic,Host Identity Verified,Is Location Exact,Instant Bookable"
10051665,"Charming 3 BR in Spanish Steps WiFi","none","2011-06-17","within an hour",100,"Roma",41.9076407359894,12.4818864811534,"Apartment","Entire home/apt",7,2,3,5,"Real Bed","TV,Internet,Wireless Internet,Air conditioning,Kitchen,Doorman,Indoor fireplace,Heating,Family/kid friendly,Washer,Smoke detector,Carbon monoxide detector,First aid kit,Safety card,Fire extinguisher,Essentials,Shampoo,24-hour check-in,Hangers,Hair dryer,Iron,Laptop friendly workspace",159,200,80,3,29,97,10,10,10,10,10,10,"moderate_new","Host Has Profile Pic,Is Location Exact,Instant Bookable"
6643683,"Cozy Apartment in Trastevere","none","2014-04-15","within an hour",90,"Roma",41.8866458129017,12.468973209442,"Apartment","Entire home/apt",2,1,1,2,"Real Bed","TV,Cable TV,Internet,Wireless Internet,Air conditioning,Kitchen,Elevator in building,Hot tub,Heating,Essentials",90,NA,27,2,48,95,10,10,10,10,10,9,"moderate_new","Host Has Profile Pic,Host Identity Verified"
13000586,"Grande Stanza Con Bagno Privato","none","2014-06-23","within a few hours",100,"Roma",41.8842948869271,12.5034643189161,"Apartment","Private room",2,1,1,2,"Real Bed","TV,Wireless Internet,Kitchen,Smoking allowed,Pets allowed,Elevator in building,Heating,Washer,Essentials,Shampoo,translation missing: en.hosting_amenity_49,translation missing: en.hosting_amenity_50",55,NA,15,2,20,85,10,9,9,10,9,9,"strict_new","Host Has Profile Pic"
16473606,"Clara Domus Stazione Termini Quintupla","none","2016-12-22","within a day",57,"Roma",41.9024345089949,12.5031871017347,"Bed & Breakfast","Private room",5,1,2,4,"Real Bed","TV,Wireless Internet,Air conditioning,Breakfast,Elevator in building,Heating,Family/kid friendly,Fire extinguisher,Essentials,Shampoo,Lock on bedroom door,Hangers,Hair dryer,Iron,Laptop friendly workspace",47,NA,NA,1,1,40,2,8,2,4,6,6,"flexible_new","Host Has Profile Pic,Is Location Exact,Instant Bookable"
9657715,"B&B Via Veneto suite QueenRome","none","2015-09-09","within an hour",100,"Roma",41.9082693590694,12.4896176673126,"Bed & Breakfast","Private room",2,1,1,1,"Real Bed","TV,Internet,Wireless Internet,Air conditioning,Wheelchair accessible,Kitchen,Smoking allowed,Doorman,Elevator in building,Heating,Suitable for events,Washer,Essentials,Shampoo,24-hour check-in,Hangers,Hair dryer,Iron,Laptop friendly workspace,Crib",100,NA,NA,1,9,90,10,10,10,10,10,9,"strict_new","Host Has Profile Pic,Host Identity Verified,Is Location Exact"
3848611,"Studio under the Coliseum","none","2012-10-30","within an hour",87,"Roma",41.8930464383002,12.4928923384281,"Apartment","Entire home/apt",2,1,0,1,"Real Bed","TV,Internet,Wireless Internet,Air conditioning,Kitchen,Pets allowed,Heating,Family/kid friendly,Washer,Essentials,Shampoo,Hair dryer",70,NA,15,2,136,89,9,9,9,9,10,9,"strict_new","Host Has Profile Pic,Host Identity Verified,Is Location Exact,Instant Bookable,Require Guest Phone Verification"
17259012,"San Pietro Arte in Suite","none","2017-02-14","within an hour",100,"Roma",41.907172028668,12.4683513294063,"Apartment","Entire home/apt",6,3,3,3,"Real Bed","TV,Internet,Wireless Internet,Air conditioning,Kitchen,Doorman,Elevator in building,Hot tub,Heating,Family/kid friendly,First aid kit,Fire extinguisher,Essentials,Shampoo,Lock on bedroom door,Hangers,Hair dryer,Iron,Laptop friendly workspace,Private entrance",250,250,80,2,0,NA,NA,NA,NA,NA,NA,NA,"flexible_new","Host Has Profile Pic,Is Location Exact,Instant Bookable"
15929239,"Room - Colosseo - Termini","none","2016-11-11","within a day",70,"Roma",41.8946108313002,12.5069471527829,"Bed & Breakfast","Private room",3,2,1,1,"Real Bed","TV,Wireless Internet,Kitchen,Smoking allowed,Breakfast,Heating,Family/kid friendly,Essentials,Shampoo,Hangers,Hair dryer,Laptop friendly workspace",25,NA,24,1,12,85,9,9,8,9,7,9,"strict_new","Host Has Profile Pic,Is Location Exact,Instant Bookable"
16685920,"Room in signorile dimora panoramica","none","2017-01-08","within an hour",100,"Roma",41.9071227025428,12.4732257522735,"Apartment","Private room",2,1,1,1,"Real Bed","TV,Wireless Internet,Air conditioning,Doorman,Elevator in building,Buzzer/wireless intercom,Heating,Smoke detector,First aid kit,Essentials,Shampoo,Lock on bedroom door,Hangers,Hair dryer,Iron,Laptop friendly workspace",30,NA,NA,2,15,99,10,10,10,10,10,9,"moderate_new","Host Is Superhost,Host Has Profile Pic,Host Identity Verified,Is Location Exact,Instant Bookable"
5546891,"Bed and breakfast a pochi passi da San Pietro","none","2011-09-05","within a few hours",90,"Roma",41.911907408599,12.4547881253563,"Bed & Breakfast","Private room",2,1,1,1,"Real Bed","Cable TV,Internet,Wireless Internet,Air conditioning,Breakfast,Elevator in building,Heating,Family/kid friendly,First aid kit,Fire extinguisher,Lock on bedroom door,Hangers,Hair dryer,Laptop friendly workspace",38,NA,NA,1,3,80,10,10,6,6,9,9,"flexible_new","Host Has Profile Pic,Is Location Exact"
12819775,"Romantic for 2! Int. 7","none","2011-07-30","within a few hours",100,"Roma",41.8961863759547,12.4729684754075,"Apartment","Entire home/apt",2,1,1,1,"Real Bed","TV,Internet,Wireless Internet,Air conditioning,Kitchen,Doorman,Elevator in building,Heating,Family/kid friendly,Washer,First aid kit,Fire extinguisher,Essentials,Shampoo,Hangers,Hair dryer,Iron,Laptop friendly workspace,translation missing: en.hosting_amenity_49",200,NA,NA,3,23,97,10,10,10,10,10,9,"moderate_new","Host Has Profile Pic,Host Identity Verified,Is Location Exact,Instant Bookable"
2334966,"Cosy Colosseum the roman atmosphere","none","2014-02-04","within a few hours",100,"Roma",41.8937960674876,12.4896038050274,"Apartment","Entire home/apt",5,1,3,4,"Real Bed","TV,Cable TV,Internet,Wireless Internet,Kitchen,Heating,Family/kid friendly,Washer,Smoke detector,Carbon monoxide detector,First aid kit,Safety card,Fire extinguisher,Essentials,Shampoo,24-hour check-in,Hangers,Hair dryer,Iron,Laptop friendly workspace,High chair,Pack ’n Play/travel crib,Children’s dinnerware",100,150,40,3,102,97,10,10,10,10,10,10,"moderate_new","Host Is Superhost,Host Has Profile Pic,Host Identity Verified,Is Location Exact"
14392849,"Campo de' Fiori Cozy Studio","none","2014-11-09","within an hour",100,"Roma",41.8932561992788,12.472118855756,"Apartment","Entire home/apt",4,1,1,1,"Real Bed","TV,Wireless Internet,Air conditioning,Family/kid friendly,Essentials,Hangers,Hair dryer,translation missing: en.hosting_amenity_50",65,NA,40,2,30,92,10,10,10,10,10,9,"strict_new","Host Has Profile Pic,Host Identity Verified,Instant Bookable"
6330785,"Remo","none","2015-05-08","",NA,"Roma",41.9040274162105,12.4608806400628,"Apartment","Entire home/apt",2,1,1,1,"Real Bed","TV,Internet,Wireless Internet,Air conditioning,Kitchen,Doorman,Gym,Elevator in building,Buzzer/wireless intercom,Heating,Family/kid friendly,Suitable for events,Washer,Dryer,Smoke detector,First aid kit,Fire extinguisher,Shampoo",139,NA,NA,1,1,100,10,10,10,10,10,10,"flexible_new","Host Has Profile Pic,Host Identity Verified,Is Location Exact"
16095133,"Appartamento 5 - Via Otranto - VATICANO","none","2016-11-23","within an hour",100,"Roma",41.9117294406486,12.4577444135444,"Apartment","Entire home/apt",6,2,2,4,"Real Bed","TV,Internet,Wireless Internet,Air conditioning,Kitchen,Elevator in building,Heating,Family/kid friendly,Washer,First aid kit,Safety card,Fire extinguisher,Essentials,Shampoo,Lock on bedroom door,Hangers,Hair dryer,Iron,Laptop friendly workspace",79,NA,35,1,7,100,10,10,10,10,10,10,"strict_new","Host Has Profile Pic,Instant Bookable"
11180756,"Casa Charme","none","2015-01-28","within an hour",100,"Roma",41.8996780917725,12.4689028258325,"Apartment","Entire home/apt",4,1,1,2,"Real Bed","TV,Cable TV,Internet,Wireless Internet,Air conditioning,Kitchen,Elevator in building,Indoor fireplace,Heating,Family/kid friendly,Washer,Smoke detector,Carbon monoxide detector,First aid kit,Safety card,Fire extinguisher,Essentials,Shampoo,24-hour check-in,Hangers,Hair dryer,Iron,Laptop friendly workspace,Self Check-In,Doorman Entry,Bathtub,High chair,Fireplace guards,Crib,Pack ’n Play/travel crib,Hot water,Bed linens,Extra pillows and blankets,Refrigerator,Dishwasher,Dishes and silverware,Cooking basics,Oven,Stove,Single level home",150,NA,NA,3,36,96,9,9,10,10,10,9,"moderate_new","Host Has Profile Pic,Host Identity Verified,Is Location Exact,Instant Bookable"
9016814,"Thebestinrome Vite Prestigious","none","2014-03-31","within an hour",100,"Roma",41.9057127060387,12.4816458886686,"Apartment","Entire home/apt",8,4,3,4,"Real Bed","TV,Cable TV,Wireless Internet,Air conditioning,Kitchen,Doorman,Elevator in building,Heating,Family/kid friendly,Washer,First aid kit,Safety card,Fire extinguisher,Essentials,Shampoo,Hangers,Hair dryer,Iron,Private entrance",700,NA,130,3,22,95,9,10,9,9,10,9,"strict_new","Host Has Profile Pic,Host Identity Verified,Is Location Exact,Instant Bookable"
11635781,"Apartment close to San Pietro 3","none","2013-09-21","within an hour",100,"Roma",41.9025447832184,12.4610246394073,"Apartment","Entire home/apt",4,1,2,2,"Real Bed","TV,Internet,Wireless Internet,Air conditioning,Kitchen,Elevator in building,Heating,Family/kid friendly,Essentials,Shampoo,Hangers,Hair dryer,Laptop friendly workspace",60,NA,50,3,15,91,10,9,10,10,10,9,"moderate_new","Host Has Profile Pic,Host Identity Verified,Is Location Exact,Instant Bookable"
5082483,"DOMUS BORROMINI: amazing location !","none","2015-01-16","within an hour",100,"Roma",41.9046973854755,12.4837893790467,"Apartment","Private room",2,1,1,1,"Real Bed","TV,Wireless Internet,Air conditioning,Pets allowed,Heating,Essentials,Shampoo",105,100,NA,4,0,NA,NA,NA,NA,NA,NA,NA,"moderate_new","Host Has Profile Pic,Is Location Exact,Instant Bookable"
13666160,"Campo dei Fiori Magic","none","2015-11-05","within an hour",100,"Roma",41.8980367402428,12.4661855255927,"Apartment","Entire home/apt",4,1,1,2,"Real Bed","TV,Wireless Internet,Air conditioning,Kitchen,Heating,Family/kid friendly,Dryer,Essentials,Lock on bedroom door,Hangers,Hair dryer,Iron,Laptop friendly workspace",105,NA,35,3,5,100,9,10,9,10,10,10,"moderate_new","Host Has Profile Pic,Is Location Exact,Instant Bookable"
14910937,"Lovely Apt. with TERRACE at the PANTHEON","none","2016-04-04","within a day",90,"Roma",41.8978439763137,12.4775312541877,"Apartment","Entire home/apt",3,1,1,2,"Real Bed","TV,Internet,Wireless Internet,Air conditioning,Kitchen,Doorman,Heating,Family/kid friendly,First aid kit,Fire extinguisher,Essentials,24-hour check-in,Hangers,Hair dryer",72,100,25,3,2,80,9,10,10,10,10,7,"moderate_new","Host Has Profile Pic,Host Identity Verified,Is Location Exact"
12213064,"TREVI LA DOLCE VITA BEAUTIFUL APT","none","2014-04-07","within a few hours",100,"Roma",41.9023525075669,12.4853137982606,"Apartment","Entire home/apt",6,1,1,3,"Real Bed","TV,Internet,Wireless Internet,Air conditioning,Kitchen,Elevator in building,Buzzer/wireless intercom,Heating,Family/kid friendly,Washer,Essentials,Shampoo,Hangers,Hair dryer,Iron,Laptop friendly workspace",115,100,50,3,28,94,10,10,10,10,10,9,"strict_new","Host Has Profile Pic,Host Identity Verified,Is Location Exact"
18384102,"Minerva - View of the Pantheon! 4PAX 2BDR","none","2011-11-04","within an hour",92,"Roma",41.8973845924561,12.4767977404591,"Apartment","Entire home/apt",4,1,2,4,"Real Bed","TV,Wireless Internet,Air conditioning,Kitchen,Heating,Family/kid friendly,Washer,First aid kit,Safety card,Fire extinguisher,Essentials,Shampoo,Hangers,Hair dryer,Iron",199,NA,NA,3,0,NA,NA,NA,NA,NA,NA,NA,"moderate_new","Host Has Profile Pic,Host Identity Verified,Is Location Exact,Instant Bookable,Require Guest Phone Verification"
14845013,"Affascinante casa al Vaticano","none","2013-09-10","",NA,"Roma",41.907718400914,12.4600375989473,"Apartment","Private room",11,3,1,11,"Real Bed","TV,Wireless Internet,Air conditioning,Kitchen,Elevator in building,Heating,Family/kid friendly,Washer,First aid kit,Fire extinguisher,Shampoo",80,NA,30,1,0,NA,NA,NA,NA,NA,NA,NA,"moderate_new","Host Has Profile Pic,Host Identity Verified"
17269716,"Chic Coliseum","none","2016-04-15","within an hour",100,"Roma",41.8881812067553,12.4952284826312,"Apartment","Entire home/apt",3,1.5,1,2,"Real Bed","TV,Cable TV,Internet,Wireless Internet,Air conditioning,Kitchen,Pets allowed,Hot tub,Buzzer/wireless intercom,Heating,Family/kid friendly,Washer,Dryer,Smoke detector,Carbon monoxide detector,First aid kit,Essentials,Shampoo,Lock on bedroom door,Hangers,Hair dryer,Iron,Laptop friendly workspace",143,NA,50,2,2,100,10,10,10,10,10,10,"strict_new","Host Has Profile Pic,Instant Bookable"
11176448,"Suite Boschetto Holidays","none","2014-07-25","within an hour",100,"Roma",41.8954629966058,12.4902143099041,"Apartment","Entire home/apt",4,2,2,3,"Real Bed","TV,Cable TV,Internet,Wireless Internet,Air conditioning,Kitchen,Heating,Family/kid friendly,Washer,First aid kit,Safety card,Fire extinguisher,Essentials,Shampoo,24-hour check-in,Hangers,Hair dryer,Iron,Laptop friendly workspace",140,150,50,3,8,98,10,10,10,10,10,10,"moderate_new","Host Has Profile Pic,Host Identity Verified,Is Location Exact,Instant Bookable"
5800338,"Charming apartment in Testaccio","none","2015-03-12","",NA,"Roma",41.8776834309812,12.472006207677,"Apartment","Entire home/apt",2,1,1,1,"Real Bed","TV,Cable TV,Kitchen,Breakfast,Heating,Washer",90,500,10,2,0,NA,NA,NA,NA,NA,NA,NA,"strict_new","Host Has Profile Pic"
13795328,"Vaticano Avenue","none","2014-04-19","within an hour",100,"Roma",41.9059209736069,12.4499251228311,"Apartment","Entire home/apt",6,1,1,3,"Real Bed","TV,Wireless Internet,Kitchen,Family/kid friendly,Washer,Shampoo,Hair dryer,Iron",55,NA,NA,1,1,100,10,10,10,10,10,10,"strict_new","Host Has Profile Pic,Host Identity Verified"
8158480,"Central and comfy, 500 mt Coliseum","none","2015-04-16","within an hour",100,"Roma",41.89531964397,12.4944534628297,"Apartment","Entire home/apt",2,1,0,1,"Real Bed","Internet,Wireless Internet,Air conditioning,Kitchen,Elevator in building,Heating,Family/kid friendly,First aid kit,Fire extinguisher,Essentials,Shampoo,Hangers,Hair dryer,Iron",86,NA,NA,3,14,90,9,9,10,10,9,9,"moderate_new","Host Has Profile Pic,Is Location Exact"
10846521,"MONTEBELLO GRANDE","none","2014-03-10","within an hour",100,"Roma",41.9060055506501,12.5003330920777,"Apartment","Entire home/apt",6,1,3,4,"Real Bed","TV,Wireless Internet,Air conditioning,Kitchen,Pets allowed,Elevator in building,Buzzer/wireless intercom,Heating,Family/kid friendly,Washer,Hangers,Hair dryer",195,250,95,3,2,90,10,9,10,10,10,9,"strict_new","Host Has Profile Pic,Host Identity Verified,Is Location Exact,Instant Bookable"
16612220,"The Pantheon's Charming Suite","none","2016-09-01","within an hour",100,"Roma",41.899580094518,12.4778912594375,"Apartment","Entire home/apt",4,1,1,2,"Real Bed","TV,Cable TV,Internet,Wireless Internet,Air conditioning,Kitchen,Pets allowed,Heating,Washer,Dryer,Essentials,Shampoo,Hangers,Hair dryer",100,NA,40,1,5,96,10,10,10,10,10,10,"strict_new","Host Has Profile Pic,Host Identity Verified,Is Location Exact"
17727284,"L'unico appartamento","none","2016-09-13","within an hour",100,"Roma",41.9103109288978,12.496349630078,"Apartment","Entire home/apt",6,2,2,4,"Real Bed","Internet,Air conditioning,Wheelchair accessible,Pool,Gym,Breakfast,Elevator in building,Hot tub,Heating,Family/kid friendly,Carbon monoxide detector,Safety card,Essentials,Shampoo,24-hour check-in,Hangers,Laptop friendly workspace",612,NA,NA,1,0,NA,NA,NA,NA,NA,NA,NA,"flexible_new","Host Has Profile Pic"
3373745,"B&B Melody Suite Rome-Superior Room","none","2014-06-20","",NA,"Roma",41.9085864906834,12.497307270854,"Bed & Breakfast","Private room",2,1,1,1,"Real Bed","TV,Cable TV,Internet,Wireless Internet,Air conditioning,Doorman,Breakfast,Elevator in building,Buzzer/wireless intercom,Heating,Smoke detector,First aid kit,Fire extinguisher,Essentials,Shampoo,Lock on bedroom door,Hangers,Hair dryer,Laptop friendly workspace",90,NA,NA,1,1,100,10,10,10,10,10,10,"moderate_new","Host Has Profile Pic,Is Location Exact"
9664731,"Bottega delle arti B&B,Roma. room 1","none","2015-11-10","within an hour",100,"Roma",41.8976609691065,12.5036971701479,"Bed & Breakfast","Private room",2,1,1,1,"Real Bed","Internet,Wireless Internet,Breakfast,Elevator in building,Heating,Family/kid friendly,First aid kit,Fire extinguisher,Essentials,Shampoo,Hair dryer,Laptop friendly workspace",30,NA,NA,1,99,94,10,10,10,10,9,10,"moderate_new","Host Has Profile Pic,Host Identity Verified"
3308635,"Confort Roma in","none","2014-06-12","within a few hours",100,"Roma",41.9004577879904,12.4956053211433,"Apartment","Entire home/apt",2,1,1,1,"Real Bed","TV,Internet,Wireless Internet,Air conditioning,Kitchen,Breakfast,Elevator in building,Heating,Washer,Dryer,Smoke detector,Carbon monoxide detector,First aid kit,Safety card,Essentials,Shampoo,Hangers,Hair dryer,Iron,Laptop friendly workspace,translation missing: en.hosting_amenity_49,translation missing: en.hosting_amenity_50",80,NA,30,3,62,97,10,10,10,10,10,10,"moderate_new","Host Is Superhost,Host Has Profile Pic,Host Identity Verified"
14973047,"WAY TO THE COLOSSEUM APARTMENT","none","2016-09-09","within an hour",100,"Roma",41.8957883703979,12.4924278114833,"Apartment","Entire home/apt",4,1,1,1,"Real Bed","Wireless Internet,Air conditioning,Kitchen,Breakfast,Heating,Family/kid friendly,Washer,Smoke detector,Carbon monoxide detector,First aid kit,Essentials,Shampoo,24-hour check-in,Hangers,Hair dryer,Iron,Laptop friendly workspace,translation missing: en.hosting_amenity_50,Private entrance",65,100,30,1,30,94,10,10,10,10,10,10,"strict_new","Host Has Profile Pic,Host Identity Verified,Is Location Exact,Instant Bookable"
18087557,"Sunflower Home super central and peacefull","none","2012-08-02","within an hour",100,"Roma",41.8926176953569,12.4628356199569,"Apartment","Entire home/apt",4,1,2,2,"Real Bed","Wireless Internet,Air conditioning,Kitchen,Free parking on premises,Heating,Family/kid friendly,First aid kit,Essentials,Shampoo,Hangers,Hair dryer,Iron,Private entrance",100,100,40,2,0,NA,NA,NA,NA,NA,NA,NA,"moderate_new","Host Has Profile Pic,Instant Bookable"
11058479,"Appartamento in Roma centro (Vatican-Saint Peter)","none","2016-02-04","within an hour",100,"Roma",41.9100300205668,12.455929588213,"Apartment","Entire home/apt",4,1,1,2,"Real Bed","TV,Cable TV,Internet,Wireless Internet,Air conditioning,Kitchen,Elevator in building,Heating,Family/kid friendly,First aid kit,Safety card,Fire extinguisher,Essentials,Shampoo,24-hour check-in,Hair dryer,Crib,Room-darkening shades",72,NA,29,2,62,96,10,10,10,10,10,10,"flexible_new","Host Has Profile Pic,Is Location Exact,Instant Bookable"
6909299,"Rome Togheter_Twist and Shout","none","2015-06-02","within an hour",100,"Roma",41.9100307549027,12.45330534747,"Bed & Breakfast","Private room",2,1,1,2,"Real Bed","TV,Internet,Wireless Internet,Air conditioning,Doorman,Breakfast,Elevator in building,Heating,Family/kid friendly,First aid kit,Safety card,Fire extinguisher,Essentials,Shampoo,translation missing: en.hosting_amenity_49",70,NA,NA,1,1,100,10,10,10,10,10,10,"moderate_new","Host Has Profile Pic,Host Identity Verified,Is Location Exact"
12807032,"Vatican Luxury Apartment","none","2016-04-22","within an hour",100,"Roma",41.9095513188249,12.4671960831928,"Apartment","Entire home/apt",4,1,1,3,"Real Bed","TV,Internet,Wireless Internet,Air conditioning,Kitchen,Doorman,Breakfast,Elevator in building,Buzzer/wireless intercom,Heating,Family/kid friendly,Washer,Smoke detector,Carbon monoxide detector,First aid kit,Safety card,Fire extinguisher,Essentials,Shampoo,24-hour check-in,Hangers,Hair dryer,Iron,Laptop friendly workspace",69,100,NA,2,63,94,10,9,10,10,10,9,"moderate_new","Host Has Profile Pic,Is Location Exact,Instant Bookable"
8998631,"Clover Guesthouse double room at Termini","none","2010-09-16","within an hour",100,"Roma",41.8962139798921,12.5040282722646,"Guesthouse","Private room",3,2,1,3,"Real Bed","Internet,Wireless Internet,Kitchen,Elevator in building,Heating,Family/kid friendly,First aid kit,Safety card,Fire extinguisher,Essentials,Lock on bedroom door",80,NA,NA,1,6,83,10,9,10,10,8,9,"flexible_new","Host Has Profile Pic,Host Identity Verified,Is Location Exact,Instant Bookable"
8997620,"APPARTAMENTO A PIAZZA SAN PIETRO","none","2015-10-20","",NA,"Roma",41.9031866493534,12.4578358051923,"Apartment","Private room",4,1,1,4,"Real Bed","TV,Wireless Internet,Air conditioning,Kitchen,Doorman,Elevator in building,Heating,Family/kid friendly,Washer,Dryer,First aid kit,Fire extinguisher,Shampoo,Lock on bedroom door",218,NA,NA,6,0,NA,NA,NA,NA,NA,NA,NA,"moderate_new","Host Has Profile Pic,Is Location Exact"
13389141,"Campo De' Fiori apartment with terrace","none","2016-06-06","within a day",100,"Roma",41.8957602949763,12.4723719864243,"Apartment","Entire home/apt",3,1,1,2,"Real Bed","TV,Wireless Internet,Air conditioning,Kitchen,Breakfast,Heating,Family/kid friendly,Washer,First aid kit,Fire extinguisher,Essentials,Shampoo,Lock on bedroom door,Hangers,Hair dryer,Iron,translation missing: en.hosting_amenity_50",80,NA,30,2,10,94,9,10,10,10,10,10,"flexible_new","Host Has Profile Pic,Is Location Exact"
8604118,"Princess of St.Peter Vatican","none","2012-09-11","within an hour",100,"Roma",41.9093572663879,12.4489002977474,"Apartment","Entire home/apt",3,1,0,2,"Real Bed","TV,Cable TV,Internet,Wireless Internet,Air conditioning,Kitchen,Elevator in building,Heating,Family/kid friendly,Essentials,translation missing: en.hosting_amenity_50",49,NA,30,1,14,91,10,9,10,10,10,9,"flexible_new","Host Has Profile Pic,Host Identity Verified,Is Location Exact"
13648719,"Trastevere Artist - For a romantic getaway in Rome","none","2016-06-22","within an hour",100,"Roma",41.8892754250385,12.4733335386725,"Apartment","Entire home/apt",6,2,2,2,"Real Bed","TV,Wireless Internet,Air conditioning,Kitchen,Heating,Smoke detector,Carbon monoxide detector,First aid kit,Safety card,Essentials,Shampoo,24-hour check-in,Hangers,Hair dryer,Iron,Laptop friendly workspace,translation missing: en.hosting_amenity_49,translation missing: en.hosting_amenity_50",162,200,40,2,32,99,10,10,10,10,10,10,"moderate_new","Host Is Superhost,Host Has Profile Pic,Host Identity Verified,Is Location Exact,Instant Bookable"
12088137,"Trastevere House Vicolo del cinque","none","2016-03-28","within an hour",100,"Roma",41.8905735027686,12.4690221595198,"House","Entire home/apt",3,1,2,2,"Real Bed","TV,Internet,Wireless Internet,Air conditioning,Kitchen,Pets allowed,Hot tub,Heating,Family/kid friendly,First aid kit,Fire extinguisher,Essentials,Shampoo,24-hour check-in,Hangers,Hair dryer,Iron,Laptop friendly workspace",69,100,NA,3,70,88,9,9,9,9,10,9,"moderate_new","Host Has Profile Pic,Is Location Exact,Instant Bookable"
16401109,"Camera Roma Centro","none","2016-10-25","within an hour",100,"Roma",41.908413250111,12.5011896269205,"House","Private room",2,1,1,1,"Real Bed","Wireless Internet,Air conditioning,Kitchen,Smoking allowed,Heating,Family/kid friendly,First aid kit,Fire extinguisher,Essentials,Shampoo,Lock on bedroom door,Hangers,Hair dryer,Iron,Laptop friendly workspace,Private entrance",28,NA,NA,2,0,NA,NA,NA,NA,NA,NA,NA,"flexible_new","Host Has Profile Pic"
5391371,"Vivi Rome B&B - Double Room","none","2015-02-17","within a few hours",100,"Roma",41.9044738437703,12.5036525761275,"Bed & Breakfast","Private room",3,1,1,2,"Real Bed","TV,Internet,Wireless Internet,Air conditioning,Breakfast,Elevator in building,Heating,Family/kid friendly,Fire extinguisher,Essentials,Shampoo",90,NA,NA,1,3,93,10,10,10,9,9,9,"flexible_new","Host Has Profile Pic,Host Identity Verified,Is Location Exact"
13123807,"Few step from Coliseum","none","2016-05-20","within an hour",91,"Roma",41.8941108599616,12.4997463860203,"Apartment","Entire home/apt",4,1,1,2,"Real Bed","TV,Wireless Internet,Air conditioning,Kitchen,Elevator in building,Heating,Family/kid friendly,Dryer,Essentials,Hangers",75,NA,30,2,3,87,9,9,10,9,9,9,"moderate_new","Host Is Superhost,Host Has Profile Pic,Host Identity Verified,Is Location Exact,Instant Bookable"
14890419,"Casa Vacanze Aida","none","2016-09-04","within an hour",100,"Roma",41.900634624703,12.4975053652778,"Apartment","Entire home/apt",3,1,1,2,"Real Bed","TV,Wireless Internet,Air conditioning,Kitchen,Elevator in building,Heating,Family/kid friendly,Washer,Smoke detector,Carbon monoxide detector,First aid kit,Safety card,Fire extinguisher,Essentials,Shampoo,Lock on bedroom door,24-hour check-in,Hangers,Hair dryer,Iron,Laptop friendly workspace,Self Check-In,Doorman Entry,Pack ’n Play/travel crib",95,NA,NA,3,22,99,10,10,10,10,10,10,"flexible_new","Host Is Superhost,Host Has Profile Pic,Is Location Exact,Instant Bookable"
17186393,"Old Vatican Borgo - Stay By The Vatican","none","2014-09-29","within an hour",100,"Roma",41.9042258246975,12.4591403322875,"Apartment","Entire home/apt",4,1,1,2,"Real Bed","TV,Wireless Internet,Air conditioning,Kitchen,Smoking allowed,Pets allowed,Buzzer/wireless intercom,Heating,Family/kid friendly,Essentials,Shampoo,Hangers,Hair dryer,Iron,Laptop friendly workspace",65,NA,35,1,0,NA,NA,NA,NA,NA,NA,NA,"strict_new","Host Has Profile Pic,Host Identity Verified,Is Location Exact"
5324947,"Loft Musei Vaticani e San Pietro","none","2014-09-17","within a few hours",100,"Roma",41.90906195966,12.4559306161388,"Apartment","Entire home/apt",4,1,1,3,"Real Bed","TV,Internet,Wireless Internet,Air conditioning,Kitchen,Pets allowed,Buzzer/wireless intercom,Heating,Family/kid friendly,Washer,Essentials,Hair dryer,Iron,translation missing: en.hosting_amenity_50",90,100,30,3,49,89,9,9,10,10,9,9,"moderate_new","Host Has Profile Pic,Host Identity Verified,Is Location Exact"
14892178,"Roma little time^one^","none","2016-01-25","within an hour",100,"Roma",41.8886294864963,12.5082694027844,"Apartment","Private room",1,0.5,1,1,"Real Bed","TV,Wireless Internet,Air conditioning,Elevator in building,Heating,Fire extinguisher,Essentials,Shampoo,Lock on bedroom door,Hair dryer,Laptop friendly workspace",28,NA,NA,1,9,93,10,9,10,10,9,9,"strict_new","Host Has Profile Pic,Host Identity Verified,Is Location Exact,Instant Bookable"
5441413,"Delicious flat in the heart of Rome","none","2015-02-22","a few days or more",0,"Roma",41.8968367924116,12.4900490029296,"Apartment","Entire home/apt",5,1,2,3,"Real Bed","TV,Internet,Wireless Internet,Air conditioning,Kitchen,Smoking allowed,Pets allowed,Elevator in building,Heating,Family/kid friendly,Washer,First aid kit,Safety card,Fire extinguisher,Essentials",85,NA,40,2,24,93,10,10,10,10,10,10,"strict_new","Host Has Profile Pic,Host Identity Verified,Is Location Exact,Instant Bookable"
13109512,"Elegante monolocale al Colosseo","none","2016-02-05","within a day",100,"Roma",41.8876900968763,12.4996445034238,"Apartment","Entire home/apt",3,1,1,2,"Real Bed","TV,Internet,Wireless Internet,Air conditioning,Kitchen,Smoking allowed,Elevator in building,Buzzer/wireless intercom,Heating,Family/kid friendly,Essentials,Hangers,Hair dryer,Laptop friendly workspace",63,NA,20,3,1,100,10,10,10,10,10,10,"strict_new","Host Has Profile Pic,Instant Bookable"
14355372,"In the heart of Trastevere","none","2016-05-14","within an hour",100,"Roma",41.8900492340054,12.4701006332077,"Apartment","Entire home/apt",2,1,1,1,"Real Bed","TV,Internet,Wireless Internet,Air conditioning,Pool,Kitchen,Breakfast,Hot tub,Indoor fireplace,Heating,Family/kid friendly,Suitable for events,First aid kit,Fire extinguisher,Essentials,Shampoo",120,NA,50,2,17,95,10,10,10,10,10,9,"moderate_new","Host Has Profile Pic,Instant Bookable"
11013179,"Double room with jacuzzi Spa Bath.","none","2014-07-29","within a day",100,"Roma",41.9063609602259,12.4782880052292,"Bed & Breakfast","Entire home/apt",6,3,3,3,"Real Bed","TV,Internet,Wireless Internet,Air conditioning,Free parking on premises,Breakfast,Elevator in building,Hot tub,Heating,Essentials,Shampoo",199,NA,NA,1,0,NA,NA,NA,NA,NA,NA,NA,"moderate_new","Host Has Profile Pic"
10161397,"CS Piazza Venezia / Campo de'Fiori Apartment","none","2015-12-24","within an hour",100,"Roma",41.894905067598,12.4813785579025,"Apartment","Entire home/apt",4,1,1,2,"Real Bed","TV,Internet,Wireless Internet,Air conditioning,Kitchen,Heating,Family/kid friendly,Washer,Safety card,Fire extinguisher,Essentials,Shampoo,24-hour check-in,Hangers,Hair dryer,Iron,Laptop friendly workspace",70,NA,40,2,63,96,10,10,10,10,10,9,"moderate_new","Host Is Superhost,Host Has Profile Pic,Is Location Exact,Instant Bookable"
9375023,"4BROS 3 min. walking from S. Peter /1","none","2012-12-05","within an hour",96,"Roma",41.9040430221742,12.4589826258844,"Apartment","Entire home/apt",4,1,0,2,"Real Bed","Wireless Internet,Air conditioning,Wheelchair accessible,Kitchen,Heating,Family/kid friendly,Washer,Essentials",89,NA,30,1,87,83,9,8,9,9,9,9,"moderate_new","Host Has Profile Pic,Host Identity Verified,Is Location Exact,Instant Bookable"
7672025,"Whole apartment in center of Rome","none","2015-08-02","within a few hours",90,"Roma",41.8972367070745,12.4723295468118,"Apartment","Entire home/apt",2,1,1,1,"Real Bed","Internet,Wireless Internet,Kitchen,Elevator in building,Buzzer/wireless intercom,Heating,Essentials,24-hour check-in,Hangers,Hair dryer,translation missing: en.hosting_amenity_49,translation missing: en.hosting_amenity_50",85,NA,20,2,23,92,10,10,10,10,10,10,"moderate_new","Host Has Profile Pic,Is Location Exact"
14095402,"MONTI PANORAMIC APARTMENT","none","2013-11-16","within an hour",100,"Roma",41.8958389031531,12.4914555945278,"Apartment","Entire home/apt",2,1,1,2,"Real Bed","TV,Wireless Internet,Kitchen,Breakfast,Heating,Washer,Smoke detector,Carbon monoxide detector,First aid kit,Safety card,Fire extinguisher,Essentials,Shampoo,24-hour check-in,Hangers,Hair dryer,Iron,Laptop friendly workspace,translation missing: en.hosting_amenity_49,translation missing: en.hosting_amenity_50,Self Check-In,Doorman Entry,Private living room",84,120,45,3,28,99,10,10,10,10,10,10,"flexible_new","Host Is Superhost,Host Has Profile Pic,Instant Bookable"
13246446,"Romantic apartment In Trastevere","none","2015-11-04","within a day",75,"Roma",41.8861787169506,12.4775823491175,"Apartment","Entire home/apt",2,1,1,2,"Real Bed","TV,Cable TV,Internet,Wireless Internet,Kitchen,Heating,Washer,Essentials,Shampoo,24-hour check-in,Hangers,Hair dryer,Iron,Laptop friendly workspace",100,NA,NA,2,1,NA,NA,NA,NA,NA,NA,NA,"strict_new","Host Has Profile Pic"
18227337,"Cozy small apartment in the center of Rome","none","2015-03-27","within an hour",100,"Roma",41.9061986718039,12.4769099626067,"Apartment","Entire home/apt",4,1,0,1,"Real Bed","Wireless Internet,Air conditioning,Kitchen,Pets allowed,Elevator in building,Hot tub,Heating,Family/kid friendly,Essentials,Shampoo,Hair dryer,Bathtub,Window guards",86,NA,30,2,1,100,10,10,10,10,10,10,"strict_new","Host Has Profile Pic,Host Identity Verified,Is Location Exact,Instant Bookable"
6300486,"OFFER !  2 bedroom apartment Navona Early check-in","none","2014-03-13","within an hour",100,"Roma",41.9023302275239,12.4725584562638,"Apartment","Entire home/apt",6,2,2,3,"Real Bed","TV,Cable TV,Internet,Wireless Internet,Air conditioning,Kitchen,Smoking allowed,Heating,Family/kid friendly,Suitable for events,Washer,Essentials,Shampoo,24-hour check-in,Hangers,Hair dryer,Iron,Laptop friendly workspace",55,100,NA,1,2,100,9,10,10,10,10,10,"moderate_new","Host Has Profile Pic,Host Identity Verified,Is Location Exact,Instant Bookable"
8464011,"Centralissima Camera indipendente","none","2015-09-19","within a few hours",100,"Roma",41.9031509960465,12.4956368766015,"Apartment","Private room",1,1,1,1,"Real Bed","TV,Wireless Internet,Kitchen,Smoking allowed,Heating,Essentials",40,NA,24,14,0,NA,NA,NA,NA,NA,NA,NA,"moderate_new","Host Has Profile Pic"
5121697,"Corso, 12 Suites near Spanish Steps","none","2015-01-20","within a day",100,"Roma",41.9086590663848,12.4775022120562,"Bed & Breakfast","Entire home/apt",4,1,1,2,"Real Bed","TV,Cable TV,Internet,Wireless Internet,Air conditioning,Pets allowed,Doorman,Breakfast,Buzzer/wireless intercom,Heating,Family/kid friendly,Fire extinguisher,Essentials",200,NA,25,1,0,NA,NA,NA,NA,NA,NA,NA,"flexible_new","Host Has Profile Pic,Host Identity Verified,Is Location Exact"
13445325,"Vaticanum apartment","none","2016-06-09","within an hour",100,"Roma",41.9069202335684,12.4492512973066,"Apartment","Entire home/apt",5,1,1,3,"Real Bed","TV,Wireless Internet,Air conditioning,Kitchen,Doorman,Elevator in building,Heating,Family/kid friendly,Smoke detector,First aid kit,Fire extinguisher,Essentials,Shampoo,Hangers,Hair dryer,Iron,Laptop friendly workspace,Crib",91,NA,20,1,8,88,9,9,10,10,9,9,"strict_new","Is Location Exact,Instant Bookable"
16525666,"2Elegant apartament in Roma center","none","2015-01-28","within an hour",100,"Roma",41.909086528074,12.4750178173622,"Apartment","Entire home/apt",10,3,3,5,"Real Bed","TV,Cable TV,Internet,Wireless Internet,Air conditioning,Kitchen,Elevator in building,Hot tub,Heating,Family/kid friendly,Washer,Smoke detector,Carbon monoxide detector,First aid kit,Safety card,Fire extinguisher,Essentials,Shampoo,24-hour check-in,Hangers,Hair dryer,Iron,Laptop friendly workspace,Self Check-In,Doorman Entry",300,NA,NA,3,0,NA,NA,NA,NA,NA,NA,NA,"moderate_new","Host Has Profile Pic,Host Identity Verified,Instant Bookable"
16656782,"AlbertHouse","none","2015-05-03","within an hour",100,"Roma",41.8956107943221,12.5088181583583,"Serviced apartment","Entire home/apt",4,1,1,1,"Real Bed","TV,Wireless Internet,Kitchen,Elevator in building,Heating,Family/kid friendly,Essentials,Hangers",50,NA,15,2,4,95,10,10,10,10,10,10,"moderate_new","Host Has Profile Pic,Is Location Exact,Instant Bookable"
5450988,"RomAntica Spanish Steps","none","2015-02-24","within an hour",100,"Roma",41.9060458364941,12.4802301429555,"Apartment","Entire home/apt",4,1,1,2,"Real Bed","TV,Cable TV,Internet,Wireless Internet,Air conditioning,Kitchen,Buzzer/wireless intercom,Washer,Essentials,Shampoo,Hair dryer",153,200,40,2,55,95,10,10,10,10,10,10,"strict_new","Host Is Superhost,Host Has Profile Pic,Is Location Exact"
2174299,"Holiday in the shadow of St. Peter","none","2014-01-07","within a few hours",100,"Roma",41.9033628606177,12.44305507013,"Bed & Breakfast","Private room",4,1,1,3,"Real Bed","TV,Wireless Internet,Air conditioning,Breakfast,Elevator in building,Heating,Family/kid friendly,First aid kit,Fire extinguisher,Essentials,Shampoo,Hair dryer",65,NA,10,2,0,NA,NA,NA,NA,NA,NA,NA,"moderate_new","Host Is Superhost,Host Has Profile Pic,Is Location Exact"
6696277,"Monolocale in centro a Roma","none","2015-06-03","within an hour",90,"Roma",41.9054258082122,12.4983045947761,"Bed & Breakfast","Private room",2,1,1,1,"Real Bed","TV,Wireless Internet,Kitchen,Breakfast,Elevator in building,Heating,Family/kid friendly,Essentials,Shampoo",70,NA,NA,1,26,86,8,9,9,9,9,9,"flexible_new","Host Has Profile Pic,Is Location Exact,Instant Bookable"
1387928,"ROMADELANTE","none","2013-07-04","",NA,"Roma",41.9055846223086,12.5039418231597,"Bed & Breakfast","Private room",2,1,1,2,"Real Bed","TV,Cable TV,Internet,Wireless Internet,Air conditioning,Breakfast,Elevator in building,Heating,Family/kid friendly,Suitable for events,Washer,Essentials,24-hour check-in,Hair dryer,Iron,Laptop friendly workspace",95,NA,NA,1,0,NA,NA,NA,NA,NA,NA,NA,"flexible_new","Host Has Profile Pic,Is Location Exact,Require Guest Profile Picture,Require Guest Phone Verification"
12726505,"Cancelli Apartment","none","2016-03-23","within an hour",100,"Roma",41.8972413162411,12.4722687836625,"Apartment","Entire home/apt",3,1,1,1,"Real Bed","TV,Wireless Internet,Air conditioning,Kitchen,Smoking allowed,Buzzer/wireless intercom,Heating,Family/kid friendly,Washer,Essentials,Shampoo,Hangers,Hair dryer,Iron,Laptop friendly workspace",175,NA,NA,3,24,94,9,10,9,9,10,9,"moderate_new","Host Has Profile Pic,Host Identity Verified,Is Location Exact,Instant Bookable"
8997560,"Acacia Guesthouse double at Termini","none","2010-09-16","within an hour",100,"Roma",41.8998024383903,12.5001096091778,"Guesthouse","Private room",3,1,1,2,"Real Bed","Internet,Wireless Internet,Kitchen,Elevator in building,Heating,Family/kid friendly,First aid kit,Safety card,Fire extinguisher,Essentials,Lock on bedroom door",80,NA,NA,1,11,95,9,10,9,10,9,9,"flexible_new","Host Has Profile Pic,Host Identity Verified,Is Location Exact,Instant Bookable"
5636631,"Your room in Rome! 6","none","2014-09-12","within a few hours",100,"Roma",41.90145376086,12.5045945537463,"Bed & Breakfast","Private room",4,0,1,3,"Real Bed","Internet,Wireless Internet,Smoking allowed,Breakfast,Elevator in building,Heating,Family/kid friendly,Essentials,24-hour check-in",48,NA,NA,1,26,78,8,8,8,8,9,9,"strict_new","Host Has Profile Pic,Is Location Exact"
12980975,"Amazing apart with a very large private terrace","none","2015-07-11","within a few hours",90,"Roma",41.8954325801315,12.4726775088825,"Apartment","Entire home/apt",2,1,0,1,"Real Bed","TV,Internet,Wireless Internet,Air conditioning,Elevator in building,Heating,Essentials,Shampoo,Iron,translation missing: en.hosting_amenity_49,translation missing: en.hosting_amenity_50",89,NA,NA,4,3,100,10,9,10,10,10,10,"moderate_new","Host Has Profile Pic,Host Identity Verified,Is Location Exact"
10372883,"YESROME BB","none","2012-11-26","a few days or more",0,"Roma",41.8985471895013,12.5027724225167,"Bed & Breakfast","Private room",2,2,1,4,"Real Bed","TV,Internet,Air conditioning,Smoking allowed,Breakfast,Elevator in building,Heating,Family/kid friendly,First aid kit,Fire extinguisher,Essentials,Shampoo,Lock on bedroom door,Hangers,Hair dryer,Laptop friendly workspace",50,NA,NA,1,0,NA,NA,NA,NA,NA,NA,NA,"flexible_new","Host Has Profile Pic,Is Location Exact"
11287729,"Campo de Fiori Enchanting Terrace","none","2015-10-15","within an hour",98,"Roma",41.8975988761383,12.4667531129832,"Apartment","Entire home/apt",4,1,2,2,"Real Bed","TV,Internet,Wireless Internet,Air conditioning,Kitchen,Heating,Family/kid friendly,Washer,Dryer,Essentials,Shampoo",195,NA,40,3,1,100,10,10,8,10,10,8,"strict_new","Host Has Profile Pic,Host Identity Verified,Is Location Exact,Instant Bookable"
5658485,"Pantheon Cozy Apartment n. 7","none","2014-11-09","within an hour",100,"Roma",41.9005805552872,12.4765397510406,"Apartment","Entire home/apt",3,1,1,2,"Real Bed","TV,Wireless Internet,Air conditioning,Kitchen,Heating,Family/kid friendly,First aid kit,Fire extinguisher,Essentials,24-hour check-in",100,NA,40,2,50,92,9,10,9,10,10,9,"strict_new","Host Has Profile Pic,Host Identity Verified,Is Location Exact,Instant Bookable"
9787706,"Internodieci Al Colosseo","none","2015-12-03","",NA,"Roma",41.8899527469163,12.4989656044664,"Apartment","Entire home/apt",3,1,0,2,"Real Bed","Cable TV,Internet,Wireless Internet,Air conditioning,Wheelchair accessible,Kitchen,Elevator in building,Heating,Family/kid friendly,Suitable for events,Essentials,Hair dryer,Iron",76,NA,40,3,21,94,9,9,10,10,10,10,"moderate_new","Host Has Profile Pic,Is Location Exact"
11491900,"Old Jewish Quarter 3BR apartment","none","2016-02-26","within an hour",100,"Roma",41.893612436216,12.4754949487895,"Apartment","Entire home/apt",8,2,3,5,"Real Bed","TV,Internet,Wireless Internet,Air conditioning,Kitchen,Pets allowed,Doorman,Elevator in building,Heating,Family/kid friendly,Suitable for events,Washer,Smoke detector,Carbon monoxide detector,Essentials,Shampoo,24-hour check-in,Hangers,Hair dryer,Iron,Laptop friendly workspace",300,300,100,3,19,96,10,10,10,10,10,10,"moderate_new","Host Has Profile Pic,Is Location Exact,Instant Bookable"
16544252,"Fellini room Roma(Only 200 meters to station!)","none","2015-03-16","within an hour",100,"Roma",41.9001577863069,12.5022447849162,"Apartment","Private room",2,1,1,1,"Real Bed","TV,Wireless Internet,Breakfast,Heating,Family/kid friendly,Essentials,Shampoo,Hair dryer,Iron",89,NA,NA,1,4,100,10,10,10,10,9,10,"moderate_new","Host Has Profile Pic,Host Identity Verified,Is Location Exact"
15823628,"Suite in Saint Peter","none","2013-05-10","a few days or more",40,"Roma",41.9098088544587,12.4580415474516,"Other","Private room",1,2,1,2,"Real Bed","Family/kid friendly",60,NA,NA,1,0,NA,NA,NA,NA,NA,NA,NA,"flexible_new","Host Has Profile Pic"
16292483,"Trilussa residence Loft Masi","none","2016-12-06","within an hour",100,"Roma",41.8892704002234,12.4678524527221,"Apartment","Entire home/apt",2,1,1,1,"Real Bed","TV,Wireless Internet,Air conditioning,Kitchen,Heating,Family/kid friendly,Washer,First aid kit,Fire extinguisher,Essentials,Shampoo,Hangers,Hair dryer,Iron,Laptop friendly workspace",42,NA,20,2,1,20,2,10,2,2,10,2,"strict_new","Host Has Profile Pic,Is Location Exact,Instant Bookable"
4733309,"BA.HOME B&B - DOUBLE room, Roma.","none","2014-12-03","within an hour",100,"Roma",41.8909754563404,12.5107667442746,"Bed & Breakfast","Private room",2,1,1,1,"Real Bed","TV,Internet,Wireless Internet,Air conditioning,Doorman,Breakfast,Elevator in building,Heating,First aid kit,Fire extinguisher,Essentials,Shampoo,Lock on bedroom door,Hangers,Hair dryer,Laptop friendly workspace,translation missing: en.hosting_amenity_49,translation missing: en.hosting_amenity_50",85,NA,NA,2,36,98,10,10,10,10,9,10,"moderate_new","Host Is Superhost,Host Has Profile Pic,Is Location Exact,Instant Bookable"
12467518,"Blue Inn Luxury Suites","none","2015-07-02","",NA,"Roma",41.9078000447135,12.4953662980192,"Bed & Breakfast","Private room",2,1,1,1,"Real Bed","TV,Internet,Wireless Internet,Air conditioning,Elevator in building,Heating,Family/kid friendly,First aid kit,Fire extinguisher,Essentials,Shampoo,Lock on bedroom door,Hangers,Hair dryer,Iron,Laptop friendly workspace",120,NA,NA,1,0,NA,NA,NA,NA,NA,NA,NA,"strict_new","Host Has Profile Pic,Is Location Exact"
6831427,"St. Peter Vatican Museum Room 2","none","2013-07-11","within an hour",100,"Roma",41.9072776301534,12.4563396447553,"Bed & Breakfast","Private room",2,1,1,1,"Real Bed","Internet,Wireless Internet,Breakfast,Elevator in building,Heating,Essentials,Shampoo,24-hour check-in,Hangers,Hair dryer,Laptop friendly workspace,translation missing: en.hosting_amenity_49,translation missing: en.hosting_amenity_50",38,NA,15,2,59,99,10,10,10,10,10,10,"moderate_new","Host Is Superhost,Host Has Profile Pic,Is Location Exact"
6504738,"single/double room St.Peter","none","2013-08-10","within a few hours",100,"Roma",41.9074264919158,12.4592540296653,"Apartment","Private room",2,0,1,1,"Pull-out Sofa","Internet,Wireless Internet,Pets allowed,Pets live on this property,Heating,Family/kid friendly,Suitable for events,Washer,First aid kit,Essentials,translation missing: en.hosting_amenity_50",30,NA,15,1,7,91,9,10,10,9,9,9,"strict_new","Host Is Superhost,Host Has Profile Pic,Host Identity Verified,Is Location Exact"
8578202,"Domus Flavia a Testaccio","none","2015-09-26","within an hour",100,"Roma",41.8802487256223,12.4721677541022,"Apartment","Entire home/apt",4,1,1,2,"Real Bed","TV,Cable TV,Wireless Internet,Air conditioning,Kitchen,Smoking allowed,Heating,Family/kid friendly,Suitable for events,Washer,First aid kit,Safety card,Fire extinguisher,Essentials,Hair dryer",70,NA,45,3,26,96,10,9,10,10,10,9,"moderate_new","Host Has Profile Pic,Is Location Exact,Instant Bookable"
12672742,"Central - WiFi - well served by public transport","none","2016-04-25","within an hour",100,"Roma",41.8755233210896,12.478255017297,"Apartment","Entire home/apt",6,1,2,3,"Real Bed","TV,Cable TV,Internet,Wireless Internet,Air conditioning,Kitchen,Smoking allowed,Elevator in building,Heating,Family/kid friendly,Washer,First aid kit,Safety card,Fire extinguisher,Essentials,Shampoo,24-hour check-in,Hangers,Hair dryer,Laptop friendly workspace",120,100,40,6,15,96,10,10,10,10,10,10,"strict_new","Host Is Superhost,Host Has Profile Pic,Is Location Exact,Instant Bookable"
10641890,"Guest House_Room Africa","none","2015-12-04","within an hour",100,"Roma",41.8977022530765,12.5028284011258,"Bed & Breakfast","Private room",4,1,1,2,"Real Bed","Internet,Wireless Internet,Air conditioning,Breakfast,Elevator in building,Heating,Family/kid friendly,First aid kit,Safety card,Fire extinguisher,Essentials,24-hour check-in,Hangers,Hair dryer,Laptop friendly workspace",80,NA,18,1,18,92,9,10,10,10,9,9,"strict_new","Host Has Profile Pic,Host Identity Verified,Instant Bookable"
9255694,"Navona Roman Terrace , Romantic Loft QA/2015/27540","none","2013-09-06","within an hour",100,"Roma",41.8997415310902,12.4674476276486,"Apartment","Entire home/apt",4,1,0,2,"Real Bed","TV,Wireless Internet,Air conditioning,Kitchen,Heating,Washer,Hair dryer,Iron",75,NA,60,2,70,98,10,10,10,10,10,10,"flexible_new","Host Has Profile Pic,Host Identity Verified,Is Location Exact,Instant Bookable"
11888267,"""Eli House Vatican"" near Metr Cipro","none","2013-05-05","within an hour",100,"Roma",41.9084262525957,12.4460272426996,"Apartment","Entire home/apt",4,1,1,2,"Real Bed","TV,Internet,Wireless Internet,Air conditioning,Kitchen,Elevator in building,Heating,Family/kid friendly,Washer,First aid kit,Safety card,Fire extinguisher,Essentials,Hangers,Hair dryer,Iron,Laptop friendly workspace",80,NA,NA,3,17,94,9,9,10,10,9,9,"strict_new","Host Has Profile Pic,Host Identity Verified,Is Location Exact,Instant Bookable"
15248924,"San Juan Maison suite","none","2011-05-18","within an hour",100,"Roma",41.8878507652264,12.5047521785786,"House","Entire home/apt",8,5,4,8,"Real Bed","TV,Cable TV,Internet,Wireless Internet,Air conditioning,Kitchen,Heating,Family/kid friendly,Suitable for events,Washer,Dryer,First aid kit,Fire extinguisher,Essentials,Shampoo,24-hour check-in,Hangers,Hair dryer,Iron,Laptop friendly workspace,Private entrance,Pack ’n Play/travel crib,Room-darkening shades",115,200,50,2,3,93,10,9,10,10,10,10,"strict_new","Host Has Profile Pic,Host Identity Verified,Instant Bookable"
10504219,"Luxury home Aventino-Circo Massimo","none","2015-07-15","within an hour",100,"Roma",41.8809844365661,12.4825601431685,"Apartment","Entire home/apt",4,1,1,2,"Real Bed","TV,Cable TV,Internet,Wireless Internet,Air conditioning,Kitchen,Doorman,Elevator in building,Buzzer/wireless intercom,Heating,Family/kid friendly,Smoke detector,Carbon monoxide detector,First aid kit,Safety card,Fire extinguisher,Essentials,Shampoo,Hangers,Hair dryer,Iron,Laptop friendly workspace,High chair,Crib,Room-darkening shades",97,200,35,3,58,99,10,10,10,10,10,10,"strict_new","Host Is Superhost,Host Has Profile Pic,Host Identity Verified,Instant Bookable"
5878807,"Room Fontana - Campo de Fiori","none","2012-05-07","within a few hours",100,"Roma",41.8987534935648,12.4697234332676,"Apartment","Private room",2,1,1,1,"Real Bed","TV,Internet,Wireless Internet,Air conditioning,Elevator in building,Heating,Family/kid friendly,Essentials,24-hour check-in,Hangers,Hair dryer,Iron",85,NA,10,2,77,91,9,9,9,9,10,9,"strict_new","Host Has Profile Pic,Host Identity Verified,Is Location Exact,Instant Bookable"
11902564,"Saba Colosseum Garden Hi Tech","none","2012-03-06","within an hour",100,"Roma",41.8769018988761,12.4893356060304,"Apartment","Entire home/apt",3,1,0,2,"Real Bed","TV,Internet,Wireless Internet,Air conditioning,Kitchen,Pets allowed,Buzzer/wireless intercom,Heating,Family/kid friendly,Washer,Dryer,First aid kit,Safety card,Fire extinguisher,Essentials,Shampoo,24-hour check-in,Hangers,Hair dryer,Iron,Laptop friendly workspace",70,100,NA,4,30,94,10,9,10,10,9,10,"moderate_new","Host Has Profile Pic,Host Identity Verified,Is Location Exact"
6207219,"Charming and spacious apartment","none","2013-06-06","within an hour",100,"Roma",41.8944596276447,12.4802813735815,"Apartment","Entire home/apt",8,2,3,3,"Real Bed","TV,Internet,Wireless Internet,Air conditioning,Kitchen,Heating,Family/kid friendly,Washer,Essentials,Shampoo,Hair dryer,Iron",180,NA,NA,2,80,95,10,9,10,10,10,10,"strict_new","Host Has Profile Pic,Host Identity Verified,Instant Bookable"
5421552,"Termini priv. Bathroom Wi-fi  A/C","none","2015-02-02","within an hour",100,"Roma",41.8969563489753,12.5031575258553,"Bed & Breakfast","Private room",2,2,1,2,"Real Bed","TV,Wireless Internet,Elevator in building,Heating,Family/kid friendly,translation missing: en.hosting_amenity_50",29,NA,NA,2,16,88,9,9,9,9,10,9,"flexible_new","Host Has Profile Pic,Host Identity Verified,Instant Bookable"
8931772,"Camera indipendente all comfort nel Cuore di Roma!","none","2015-10-16","within a day",100,"Roma",41.9057989889819,12.4695098419207,"Bed & Breakfast","Private room",2,1,1,1,"Real Bed","TV,Wireless Internet,Air conditioning,Doorman,Breakfast,Elevator in building,Heating,Family/kid friendly,First aid kit,Fire extinguisher,Essentials,Shampoo,Lock on bedroom door,Hangers,Hair dryer,Iron,Laptop friendly workspace",68,NA,20,2,3,87,10,10,9,10,9,9,"moderate_new","Host Has Profile Pic,Host Identity Verified,Is Location Exact,Instant Bookable"
11516769,"Vatican Apartment 3 bedrooms","none","2014-08-07","within a few hours",100,"Roma",41.9047695974581,12.4437442680899,"Apartment","Entire home/apt",8,2,3,4,"Real Bed","TV,Wireless Internet,Air conditioning,Kitchen,Smoking allowed,Doorman,Elevator in building,Heating,Family/kid friendly,Washer,Fire extinguisher,Shampoo,Hangers,Hair dryer,Iron",113,NA,50,2,23,97,10,10,10,10,10,10,"moderate_new","Host Has Profile Pic,Host Identity Verified,Is Location Exact"
18005597,"ROMA MIA","none","2017-03-27","within an hour",100,"Roma",41.9008219842721,12.4708864611107,"Loft","Entire home/apt",2,1,1,2,"Real Bed","TV,Internet,Wireless Internet,Air conditioning,Kitchen,Heating,Family/kid friendly,Washer,First aid kit,Fire extinguisher,Essentials,Shampoo,Hangers,Hair dryer,Laptop friendly workspace,translation missing: en.hosting_amenity_50",90,NA,35,1,4,90,9,9,10,9,10,10,"moderate_new","Host Has Profile Pic,Is Location Exact,Instant Bookable"
8977847,"Trastevere, WITH BEAUTIFUL VIEW","none","2013-12-29","within an hour",100,"Roma",41.8886141237753,12.4749737690817,"Apartment","Entire home/apt",6,1,2,3,"Real Bed","TV,Wireless Internet,Air conditioning,Kitchen,Heating,Family/kid friendly,Washer,Hangers,Hair dryer,Iron",70,NA,65,2,42,87,9,9,9,9,10,9,"flexible_new","Host Has Profile Pic,Host Identity Verified,Is Location Exact,Instant Bookable"
4193034,"STANZA COLOSSEO","none","2014-09-17","within an hour",100,"Roma",41.9009038150153,12.5049137630133,"Bed & Breakfast","Private room",2,1,1,1,"Real Bed","TV,Wireless Internet,Air conditioning,Breakfast,Elevator in building,Heating,Family/kid friendly,First aid kit,Fire extinguisher,Essentials,Shampoo,24-hour check-in,Hair dryer",45,NA,NA,1,54,91,10,10,9,8,9,9,"moderate_new","Host Has Profile Pic,Host Identity Verified,Is Location Exact"
4705829,"centrale,  spazioso e climatizzato","none","2014-11-30","within an hour",100,"Roma",41.8953612841896,12.4999988740812,"Apartment","Entire home/apt",6,2,2,6,"Real Bed","TV,Cable TV,Internet,Wireless Internet,Air conditioning,Kitchen,Pets allowed,Elevator in building,Hot tub,Heating,Family/kid friendly,Washer,First aid kit,Safety card,Fire extinguisher,Essentials,Shampoo,24-hour check-in,Hangers,Hair dryer,Iron,Laptop friendly workspace",150,NA,NA,3,29,97,10,10,10,10,9,10,"strict_new","Host Is Superhost,Host Has Profile Pic,Host Identity Verified,Is Location Exact,Instant Bookable"
7129624,"Sweet room 10 minutes to Colosseo","none","2014-02-23","within an hour",100,"Roma",41.8875581703817,12.5108837444599,"House","Private room",2,1,1,1,"Real Bed","TV,Internet,Wireless Internet,Kitchen,Smoking allowed,Elevator in building,Heating,Washer,Shampoo,Hangers",36,NA,20,1,6,96,10,10,10,10,10,10,"flexible_new","Host Has Profile Pic,Host Identity Verified"
16425307,"Central Sweety loft Roma Termini","none","2016-08-26","within an hour",100,"Roma",41.8966605488389,12.5050054462424,"Apartment","Entire home/apt",2,1,1,1,"Real Bed","TV,Internet,Wireless Internet,Air conditioning,Kitchen,Pets allowed,Doorman,Breakfast,Elevator in building,Buzzer/wireless intercom,Heating,Family/kid friendly,Essentials,Shampoo,Laptop friendly workspace",35,NA,10,2,25,93,10,10,10,10,9,9,"strict_new","Host Is Superhost,Host Has Profile Pic,Host Identity Verified,Instant Bookable"
16762869,"Maggiore Family House","none","2012-09-11","within an hour",100,"Roma",41.8961650760938,12.4992275927857,"Apartment","Entire home/apt",6,2,2,4,"Real Bed","TV,Wireless Internet,Air conditioning,Kitchen,Elevator in building,Heating,Family/kid friendly,Essentials,Hangers,Hair dryer,Laptop friendly workspace",69,NA,35,2,15,85,9,8,8,9,10,9,"flexible_new","Host Has Profile Pic,Host Identity Verified,Is Location Exact"
13289129,"Week end au coeur de Rome","none","2016-03-24","within an hour",83,"Roma",41.9000704336842,12.4764821774297,"Apartment","Entire home/apt",4,1,1,2,"Real Bed","TV,Internet,Wireless Internet,Air conditioning,Kitchen,Heating,Family/kid friendly,First aid kit,Fire extinguisher,Essentials,Hangers,Hair dryer,translation missing: en.hosting_amenity_50",95,NA,30,2,33,94,10,10,10,9,10,9,"flexible_new","Host Has Profile Pic,Host Identity Verified,Is Location Exact"
17549646,"New!!!! Warm apartment in the heart of Rome","none","2015-04-25","within a few hours",100,"Roma",41.8823621602604,12.4757387516963,"Apartment","Entire home/apt",4,1,2,3,"Real Bed","TV,Wireless Internet,Air conditioning,Kitchen,Doorman,Heating,Family/kid friendly,Safety card,Essentials,Hangers,Laptop friendly workspace",150,NA,NA,2,0,NA,NA,NA,NA,NA,NA,NA,"strict_new","Host Has Profile Pic,Host Identity Verified,Is Location Exact,Instant Bookable"
7195675,"Colorful super connected apartment","none","2011-09-04","within an hour",97,"Roma",41.8984979637432,12.5050681493613,"Apartment","Entire home/apt",5,1,1,3,"Real Bed","TV,Internet,Wireless Internet,Air conditioning,Kitchen,Elevator in building,Buzzer/wireless intercom,Heating,Family/kid friendly,Washer,First aid kit,Safety card,Fire extinguisher,Essentials,Shampoo,24-hour check-in,Hangers,Hair dryer,Iron,Laptop friendly workspace",75,150,50,3,18,89,10,10,10,9,7,9,"strict_new","Host Has Profile Pic,Host Identity Verified,Is Location Exact,Instant Bookable"
5556399,"Double room BB service - Domus Best","none","2012-09-13","within a few hours",100,"Roma",41.9091413698689,12.4614265997323,"Bed & Breakfast","Private room",2,1,1,1,"Real Bed","TV,Internet,Wireless Internet,Air conditioning,Breakfast,Elevator in building,Heating,Family/kid friendly,Essentials,Shampoo",90,NA,NA,1,1,100,10,10,10,10,10,10,"moderate_new","Host Has Profile Pic,Host Identity Verified,Is Location Exact"
16762996,"Traditional apartment adjacent to the Roman Forum","none","2017-01-13","within an hour",100,"Roma",41.8956810692073,12.4942316544399,"Apartment","Entire home/apt",4,1,1,2,"Real Bed","TV,Wireless Internet,Air conditioning,Kitchen,Elevator in building,Heating,Family/kid friendly,Dryer,First aid kit,Fire extinguisher,Essentials,Shampoo,Hangers,Hair dryer,Iron,Laptop friendly workspace,translation missing: en.hosting_amenity_50",80,100,30,3,3,100,10,10,10,10,10,10,"flexible_new","Host Has Profile Pic,Host Identity Verified,Is Location Exact,Instant Bookable"
11977903,"La Bella Giuliana Bed and Breakfast","none","2016-03-22","a few days or more",0,"Roma",41.9139598493857,12.4549886557474,"Bed & Breakfast","Private room",3,1,1,2,"Real Bed","TV,Internet,Wireless Internet,Air conditioning,Breakfast,Elevator in building,Heating,Family/kid friendly,First aid kit,Fire extinguisher,Essentials,Shampoo,Hangers,Hair dryer,Iron",55,NA,NA,2,0,NA,NA,NA,NA,NA,NA,NA,"strict_new","Host Has Profile Pic,Is Location Exact"
15320189,"Deluxe Three-Bedroom Apartment 180m+ 30mqs terrace","none","2013-08-25","within an hour",100,"Roma",41.9034285334605,12.484809527149,"Apartment","Entire home/apt",12,4,3,12,"Real Bed","TV,Wireless Internet,Air conditioning,Kitchen,Elevator in building,Heating,Family/kid friendly,First aid kit,Fire extinguisher,Essentials,Shampoo,Hangers,Hair dryer",198,NA,35,2,1,80,10,10,10,10,10,10,"strict_new","Host Has Profile Pic,Is Location Exact,Instant Bookable"
17680115,"diecipassi casa vacanze","none","2017-03-12","within an hour",100,"Roma",41.8879686736021,12.4951027387103,"House","Entire home/apt",2,1,1,1,"Real Bed","TV,Wireless Internet,Air conditioning,Kitchen,Family/kid friendly,Washer,First aid kit,Fire extinguisher,Shampoo,Hangers,Hair dryer,Iron",71,NA,NA,2,9,93,10,10,10,10,10,9,"strict_new","Host Has Profile Pic,Host Identity Verified,Is Location Exact,Instant Bookable"
13025995,"Charming room near Colosseo","none","2014-06-15","within an hour",100,"Roma",41.8930636122226,12.5001419873577,"Apartment","Private room",2,1,1,1,"Real Bed","TV,Cable TV,Internet,Wireless Internet,Air conditioning,Kitchen,Smoking allowed,Pets allowed,Breakfast,Elevator in building,Heating,Washer,Dryer,Essentials,Shampoo,24-hour check-in,Hangers,Hair dryer,Iron,Laptop friendly workspace,translation missing: en.hosting_amenity_49,translation missing: en.hosting_amenity_50",40,150,20,1,27,96,10,10,10,10,10,10,"moderate_new","Host Is Superhost,Host Has Profile Pic,Is Location Exact"
9355640,"Il Tempio della Capitale Red suite","none","2015-11-09","within an hour",100,"Roma",41.8932671550224,12.4770706717315,"Apartment","Private room",4,1,1,4,"Real Bed","TV,Cable TV,Internet,Wireless Internet,Air conditioning,Doorman,Heating,Family/kid friendly,Carbon monoxide detector,First aid kit,Fire extinguisher,Essentials,Shampoo,Lock on bedroom door,Hangers,Hair dryer",90,120,15,1,1,100,10,10,10,10,10,10,"strict_new","Host Has Profile Pic,Host Identity Verified,Is Location Exact"
16630091,"Prince Vatican rooms","none","2017-01-04","within an hour",100,"Roma",41.9085562797813,12.4525047991979,"Bed & Breakfast","Private room",2,1,4,5,"Real Bed","TV,Internet,Wireless Internet,Air conditioning,Kitchen,Breakfast,Elevator in building,Heating,Family/kid friendly,First aid kit,Fire extinguisher,Essentials,Shampoo,Hangers,Hair dryer,Iron,translation missing: en.hosting_amenity_50",50,NA,NA,1,4,90,10,10,10,10,10,10,"strict_new","Host Has Profile Pic,Instant Bookable"
9954800,"The Pantheon experience","none","2015-12-12","within an hour",100,"Roma",41.8978976289369,12.47728334547,"Apartment","Entire home/apt",4,1,2,2,"Real Bed","TV,Cable TV,Internet,Wireless Internet,Air conditioning,Kitchen,Pets allowed,Heating,Family/kid friendly,First aid kit,Safety card,Fire extinguisher,Essentials,Shampoo,24-hour check-in,Hangers,Hair dryer,Iron,Laptop friendly workspace,Self Check-In,Smartlock",130,NA,50,2,38,97,10,10,10,10,10,10,"strict_new","Host Is Superhost,Host Has Profile Pic,Is Location Exact,Instant Bookable"
16473150,"Tibullo apartment St.Peter 600 m. from metro stop","none","2016-12-22","within an hour",100,"Roma",41.905338411967,12.4629285105324,"Apartment","Entire home/apt",4,1,1,1,"Real Bed","TV,Wireless Internet,Air conditioning,Kitchen,Elevator in building,Heating,Family/kid friendly,Washer,Smoke detector,Carbon monoxide detector,First aid kit,Essentials,Shampoo,Hangers,Hair dryer,Iron,Laptop friendly workspace,Private entrance",59,NA,60,3,7,100,10,10,10,10,9,10,"moderate_new","Host Has Profile Pic,Is Location Exact,Instant Bookable"
15163162,"Romerooms","none","2016-09-21","within an hour",100,"Roma",41.907889873649,12.4623914552737,"Bed & Breakfast","Private room",2,1,1,1,"Real Bed","TV,Wireless Internet,Air conditioning,Breakfast,Elevator in building,Heating,Family/kid friendly,Smoke detector,First aid kit,Fire extinguisher,Essentials,Shampoo,24-hour check-in,Hangers,Hair dryer,Iron,Laptop friendly workspace,Crib,Luggage dropoff allowed,Long term stays allowed,Wide clearance to bed,Wide clearance to shower and toilet",40,NA,NA,1,0,NA,NA,NA,NA,NA,NA,NA,"flexible_new","Host Has Profile Pic,Is Location Exact,Instant Bookable"
15293019,"Luxury 4BR 4 Baths - Piazza Navona Apartment","none","2015-09-07","within an hour",100,"Roma",41.8958964981613,12.4732318234582,"Apartment","Entire home/apt",8,4,4,6,"Real Bed","TV,Wireless Internet,Air conditioning,Kitchen,Doorman,Elevator in building,Heating,Family/kid friendly,Suitable for events,Washer,Dryer,Essentials,Shampoo,Hangers,Hair dryer,Iron,Laptop friendly workspace",450,400,100,3,3,100,10,10,10,10,10,10,"flexible_new","Host Has Profile Pic,Host Identity Verified,Is Location Exact,Instant Bookable"
7561106,"BB MINERVA - room Villa Chigi","none","2013-10-14","within a day",50,"Roma",41.9431390045573,12.5181442173643,"Bed & Breakfast","Private room",3,1,1,2,"Real Bed","TV,Wireless Internet,Wheelchair accessible,Kitchen,Free parking on premises,Smoking allowed,Breakfast,Elevator in building,Heating,Family/kid friendly,Suitable for events,First aid kit,Fire extinguisher,Essentials,Shampoo,Hair dryer,Laptop friendly workspace",52,NA,20,2,1,100,8,10,10,10,10,10,"flexible_new","Host Has Profile Pic,Is Location Exact"
18109147,"COZY APARTMENT-20 MINUTES TO CITY CENTER.","none","2015-11-20","within an hour",100,"Roma",41.9410412158385,12.5295678649083,"Apartment","Private room",2,1.5,1,2,"Real Bed","Wireless Internet,Kitchen,Breakfast,Elevator in building,Heating,Family/kid friendly,Washer,Essentials,Hangers,Laptop friendly workspace,translation missing: en.hosting_amenity_50",40,NA,NA,2,2,80,9,9,10,9,9,9,"flexible_new","Host Has Profile Pic,Is Location Exact,Instant Bookable"
17508700,"Rome Nord One Bedroom","none","2017-03-01","within an hour",100,"Roma",41.9848010378906,12.511327570144,"Apartment","Entire home/apt",3,1,1,1,"Real Bed","TV,Wireless Internet,Air conditioning,Kitchen,Free parking on premises,Elevator in building,Heating,Family/kid friendly,Washer,Essentials,Hangers,Hair dryer,Iron,Laptop friendly workspace",39,100,40,2,1,100,10,10,10,8,8,10,"moderate_new","Host Has Profile Pic,Is Location Exact,Instant Bookable"
6281291,"affitta camera","none","2015-05-05","",NA,"Roma",41.9356266187564,12.5382786333325,"Bed & Breakfast","Private room",2,1,1,1,"Real Bed","TV,Internet,Wireless Internet,Kitchen,Smoking allowed,Gym,Breakfast,Heating,Family/kid friendly,Washer,First aid kit,Shampoo",45,NA,NA,1,0,NA,NA,NA,NA,NA,NA,NA,"flexible_new","Host Has Profile Pic"
13822746,"White apartment","none","2013-12-26","within a day",50,"Roma",41.937688316523,12.54219651629,"Apartment","Entire home/apt",3,1,1,1,"Couch","TV,Wireless Internet,Kitchen,Free parking on premises,Elevator in building,Heating,Washer,Essentials,Shampoo,Hangers,Hair dryer,Iron,Laptop friendly workspace",80,100,30,1,0,NA,NA,NA,NA,NA,NA,NA,"flexible_new","Host Has Profile Pic,Is Location Exact"
8247691,"Beautiful studio apartment","none","2015-09-06","within an hour",100,"Roma",41.9390283223871,12.5504065516775,"Apartment","Entire home/apt",4,1,1,2,"Real Bed","TV,Internet,Wireless Internet,Air conditioning,Kitchen,Free parking on premises,Doorman,Elevator in building,Heating,Family/kid friendly,Washer,Shampoo,Hangers,Hair dryer,Iron,Laptop friendly workspace",45,150,30,2,28,90,9,9,10,10,8,9,"strict_new","Host Has Profile Pic,Is Location Exact"
17861048,"Appartamento Case Rosse","none","2015-04-26","within a few hours",100,"Roma",41.9357710748207,12.6499578145907,"Apartment","Entire home/apt",4,1,1,1,"Real Bed","TV,Wireless Internet,Kitchen,Heating,Family/kid friendly,Washer,Essentials,Shampoo,Hangers,Hair dryer,Iron",60,NA,NA,2,0,NA,NA,NA,NA,NA,NA,NA,"flexible_new","Host Has Profile Pic,Is Location Exact"
7768785,"Roman holiday","none","2015-04-17","within an hour",100,"Roma",41.929236673537,12.5692682431585,"Apartment","Entire home/apt",2,1,1,2,"Real Bed","TV,Air conditioning,Kitchen,Heating,Washer,Essentials,Hair dryer,translation missing: en.hosting_amenity_49,translation missing: en.hosting_amenity_50",39,NA,NA,4,4,90,10,10,10,9,9,10,"moderate_new","Host Has Profile Pic,Host Identity Verified"
16550617,"Girlish,Queen bed for one!","none","2015-09-09","within an hour",100,"Roma",41.910519988531,12.537890712835,"Apartment","Private room",1,1,1,1,"Real Bed","translation missing: en.hosting_amenity_49,translation missing: en.hosting_amenity_50",35,NA,NA,1,0,NA,NA,NA,NA,NA,NA,NA,"flexible_new","Host Has Profile Pic"
7080340,"Double room close Tiburtina station","none","2011-10-13","",NA,"Roma",41.9076854444869,12.5352287253249,"Apartment","Private room",2,0,1,1,"Real Bed","Wireless Internet,Kitchen,Free parking on premises,Doorman,Elevator in building,Heating,Washer,Shampoo,Lock on bedroom door,translation missing: en.hosting_amenity_49,translation missing: en.hosting_amenity_50",30,NA,NA,2,0,NA,NA,NA,NA,NA,NA,NA,"flexible_new","Host Has Profile Pic,Host Identity Verified"
5649006,"Stanza Roma vicino Staz Tiburtina","none","2015-03-13","within a few hours",100,"Roma",41.9075114359129,12.5461108390974,"House","Private room",2,1,1,1,"Real Bed","Internet,Wireless Internet,Kitchen,Smoking allowed,Pets allowed,Heating,Washer",30,NA,NA,1,0,NA,NA,NA,NA,NA,NA,NA,"moderate_new","Host Has Profile Pic,Host Identity Verified,Is Location Exact"
12536232,"Stanza con bagno privato","none","2011-05-17","within a day",100,"Roma",41.9100016321051,12.5526301713266,"Bed & Breakfast","Private room",1,1,1,1,"Real Bed","TV,Internet,Wireless Internet,Kitchen,Smoking allowed,Breakfast,Heating,Family/kid friendly,Washer,Essentials,24-hour check-in,Iron",35,NA,7,1,6,97,10,10,10,10,9,10,"flexible_new","Host Has Profile Pic,Host Identity Verified,Is Location Exact"
14837141,"Tiburtina Flat","none","2016-08-31","within an hour",100,"Roma",41.9109600453499,12.5361809102904,"Apartment","Entire home/apt",4,1,2,4,"Real Bed","Wireless Internet,Wheelchair accessible,Kitchen,Doorman,Elevator in building,Heating,Family/kid friendly,Washer,Essentials,Shampoo,Hangers,Hair dryer,Iron,Laptop friendly workspace",60,NA,NA,1,8,100,10,10,10,10,10,9,"moderate_new","Host Has Profile Pic,Is Location Exact,Instant Bookable"
13817653,"Grazioso monolocale con giardino","none","2016-05-31","a few days or more",0,"Roma",41.9248336146786,12.5466656679062,"Apartment","Entire home/apt",2,1,1,1,"Pull-out Sofa","TV,Air conditioning,Kitchen,Pets allowed,Heating,Family/kid friendly,Washer,Essentials,Hangers,Hair dryer,Iron",42,NA,50,1,0,NA,NA,NA,NA,NA,NA,NA,"flexible_new","Host Has Profile Pic,Is Location Exact"
2405496,"Un nido familiare urbano!","none","2014-02-16","within an hour",100,"Roma",41.8962671635206,12.536800975926,"House","Entire home/apt",3,1,1,2,"Real Bed","Internet,Wireless Internet,Air conditioning,Kitchen,Breakfast,Elevator in building,Buzzer/wireless intercom,Heating,Family/kid friendly,Washer,Dryer,Essentials,Shampoo,Hangers,Hair dryer,Iron",47,NA,11,1,2,100,10,10,10,10,10,10,"moderate_new","Host Has Profile Pic,Host Identity Verified,Is Location Exact"
16256862,"Caroline affitta camere","none","2015-11-17","within an hour",100,"Roma",41.856534759327,12.5631923281213,"Bed & Breakfast","Private room",4,1,1,4,"Real Bed","TV,Wireless Internet,Kitchen,Free parking on premises,Smoking allowed,Pets allowed,Breakfast,Elevator in building,Heating,Family/kid friendly,Dryer,First aid kit,Fire extinguisher,Essentials,Lock on bedroom door,Hangers,Hair dryer,Iron,Laptop friendly workspace",50,NA,NA,1,0,NA,NA,NA,NA,NA,NA,NA,"flexible_new","Host Has Profile Pic,Host Identity Verified"
4162222,"ampia camera in Via Tuscolana","none","2013-12-02","",NA,"Roma",41.8600664393539,12.5551127399358,"Apartment","Private room",1,1,1,1,"Real Bed","Cable TV,Wireless Internet,Kitchen,Elevator in building,Heating,Washer,Essentials",450,NA,NA,1,0,NA,NA,NA,NA,NA,NA,NA,"flexible_new","Host Has Profile Pic,Is Location Exact"
13279394,"Metro A Subaugusta - CINECITTA'","none","2012-08-17","a few days or more",30,"Roma",41.8577155691336,12.5680369923718,"Apartment","Private room",1,2,1,1,"Real Bed","TV,Wireless Internet,Kitchen,Elevator in building,Heating,Washer,Laptop friendly workspace,translation missing: en.hosting_amenity_49,translation missing: en.hosting_amenity_50",13,NA,100,90,0,NA,NA,NA,NA,NA,NA,NA,"flexible_new","Host Has Profile Pic,Host Identity Verified,Is Location Exact"
8982715,"October in Rome","none","2015-10-19","",NA,"Roma",41.8794032880626,12.5203925267058,"Bed & Breakfast","Private room",2,1,1,1,"Real Bed","TV,Wireless Internet,Air conditioning,Breakfast,Elevator in building,Heating,Family/kid friendly,Essentials,Shampoo",65,NA,NA,1,0,NA,NA,NA,NA,NA,NA,NA,"flexible_new","Host Has Profile Pic,Is Location Exact,Instant Bookable"
17433977,"Il Cielo di Roma - Is a many splendored thing","none","2017-02-24","within an hour",100,"Roma",41.8778196125392,12.529481640113,"Apartment","Entire home/apt",6,1,2,3,"Real Bed","TV,Wireless Internet,Air conditioning,Kitchen,Heating,Family/kid friendly,Essentials,Shampoo,Hangers,Hair dryer,Iron,Laptop friendly workspace",38,NA,20,1,8,100,10,10,10,10,9,10,"moderate_new","Host Has Profile Pic,Is Location Exact,Instant Bookable"
10291297,"MC-Economy2 con bagno condiviso","none","2015-12-31","within a day",100,"Roma",41.8805246175483,12.5050559747231,"Apartment","Private room",3,0,1,2,"Pull-out Sofa","TV,Internet,Kitchen,Breakfast,Elevator in building,Heating,Family/kid friendly,Washer,First aid kit,Fire extinguisher,Lock on bedroom door,Hair dryer,Iron",40,NA,NA,1,7,91,9,10,10,9,9,9,"strict_new","Host Has Profile Pic,Is Location Exact"
9767374,"Central apartment near Termini...","none","2015-01-05","within a day",100,"Roma",41.8863414792104,12.5177826305226,"House","Private room",2,1,1,2,"Real Bed","Wireless Internet,Smoking allowed,Breakfast,Elevator in building,Heating,First aid kit,Essentials,Lock on bedroom door,Hair dryer,Iron",32,NA,33,3,3,73,8,7,9,5,6,7,"moderate_new","Host Has Profile Pic"
13964323,"Bellissimo appartamento ben arredato e curato","none","2014-08-13","",NA,"Roma",41.8886287546675,12.5188339797012,"Apartment","Private room",1,1,1,1,"Real Bed","TV,Internet,Wireless Internet,Air conditioning,Kitchen,Free parking on premises,Smoking allowed,Breakfast,Elevator in building,Heating,Family/kid friendly,Washer,Dryer,Carbon monoxide detector,Essentials,Shampoo,Lock on bedroom door,24-hour check-in,Hangers,Hair dryer,Laptop friendly workspace",25,350,50,10,0,NA,NA,NA,NA,NA,NA,NA,"moderate_new","Host Has Profile Pic,Is Location Exact"
14865741,"Studio Stefania","none","2016-09-02","within an hour",90,"Roma",41.8761256256303,12.5241376504647,"Apartment","Entire home/apt",4,1,1,3,"Real Bed","TV,Wireless Internet,Kitchen,Elevator in building,Heating,Family/kid friendly,Washer,Essentials,Hangers",35,NA,25,2,10,94,9,10,10,10,9,9,"moderate_new","Host Is Superhost,Host Has Profile Pic,Is Location Exact,Instant Bookable"
11153859,"Country room with private bathroom","none","2016-02-09","within an hour",90,"Roma",41.8799798170874,12.5038631988612,"Bed & Breakfast","Private room",1,1,1,1,"Pull-out Sofa","Cable TV,Wireless Internet,Air conditioning,Doorman,Breakfast,Elevator in building,Heating,Hangers,Hair dryer,translation missing: en.hosting_amenity_49,translation missing: en.hosting_amenity_50",43,NA,NA,1,13,100,10,10,10,10,10,10,"moderate_new","Host Has Profile Pic,Host Identity Verified,Is Location Exact,Instant Bookable"
6315184,"Lovely Apartment in Rome, Italy","none","2015-02-11","within a few hours",100,"Roma",41.877034369343,12.5084690175014,"Apartment","Entire home/apt",2,1,1,1,"Real Bed","Internet,Wireless Internet,Kitchen,Breakfast,Elevator in building,Hot tub,Heating,Family/kid friendly,Washer,Essentials,Shampoo,Hangers,Hair dryer,Iron,Laptop friendly workspace",50,NA,30,2,7,97,10,9,10,10,10,10,"strict_new","Host Has Profile Pic,Host Identity Verified,Is Location Exact"
3368128,"8mn→Downtown Anny villa: Single small cozy room","none","2012-01-17","within an hour",100,"Roma",41.8350182271812,12.5702765684557,"Villa","Private room",1,1,1,1,"Real Bed","TV,Internet,Wireless Internet,Air conditioning,Free parking on premises,Indoor fireplace,Heating,Suitable for events,Washer,First aid kit,Safety card,Essentials,Shampoo,24-hour check-in,Hangers,Hair dryer,Iron,Laptop friendly workspace,translation missing: en.hosting_amenity_49,translation missing: en.hosting_amenity_50",25,NA,NA,1,29,93,9,9,10,10,9,9,"moderate_new","Host Has Profile Pic"
17185755,"Spanish Steps Elegant Apartment in Rome","none","2016-04-17","within an hour",100,"Roma",41.9067682579472,12.4818457898659,"Apartment","Entire home/apt",4,2,2,2,"Real Bed","TV,Wireless Internet,Air conditioning,Kitchen,Elevator in building,Hot tub,Heating,Family/kid friendly,Smoke detector,Carbon monoxide detector,First aid kit,Safety card,Fire extinguisher,Essentials,Shampoo,Lock on bedroom door,Hangers,Hair dryer,Iron,Laptop friendly workspace,translation missing: en.hosting_amenity_49,Private entrance",405,NA,NA,2,1,100,10,10,10,10,10,10,"moderate_new","Host Is Superhost,Host Has Profile Pic,Host Identity Verified,Is Location Exact,Instant Bookable"
15938777,"AlohaRome Tripla","none","2014-02-24","within an hour",100,"Roma",41.8971261814977,12.5047616009013,"Serviced apartment","Private room",3,1,1,2,"Real Bed","TV,Wireless Internet,Pets allowed,Elevator in building,Heating,Family/kid friendly,First aid kit,Safety card,Fire extinguisher,Essentials,Shampoo,Lock on bedroom door,Hangers,Hair dryer,Iron,Laptop friendly workspace",75,NA,NA,1,7,83,8,8,9,9,9,8,"moderate_new","Host Has Profile Pic,Is Location Exact,Instant Bookable"
11986301,"BED&BREAKFAST PIANETA ROMA127","none","2016-03-22","within a day",67,"Roma",41.9070937256219,12.4465051182384,"Bed & Breakfast","Private room",3,1,1,2,"Real Bed","TV,Cable TV,Internet,Wireless Internet,Air conditioning,Kitchen,Breakfast,Elevator in building,Heating,Family/kid friendly,Suitable for events,Washer,Dryer,Essentials,Shampoo,Hangers,Hair dryer",60,NA,NA,1,0,NA,NA,NA,NA,NA,NA,NA,"flexible_new","Host Has Profile Pic"
13022104,"Luminoso Appartamento sul Tevere","none","2015-08-21","within a day",100,"Roma",41.9067062660778,12.4723291067057,"Apartment","Entire home/apt",4,1,1,1,"Real Bed","TV,Cable TV,Wireless Internet,Air conditioning,Kitchen,Doorman,Breakfast,Elevator in building,Hot tub,Indoor fireplace,Heating,Family/kid friendly,Washer,Fire extinguisher,Essentials,Shampoo,Hangers,Hair dryer,Iron,Laptop friendly workspace",90,NA,15,1,3,87,8,9,9,9,9,9,"moderate_new","Host Has Profile Pic,Is Location Exact"
5714913,"Daisy room in campo dei fiori-103","none","2015-03-18","within a few hours",100,"Roma",41.896789321117,12.4734242298048,"Bed & Breakfast","Private room",4,1,1,2,"Real Bed","TV,Cable TV,Internet,Wireless Internet,Air conditioning,Doorman,Breakfast,Heating,First aid kit,Safety card,Fire extinguisher,Essentials,Shampoo",80,NA,NA,1,1,80,10,10,10,10,10,10,"moderate_new","Host Has Profile Pic,Is Location Exact"
5780441,"Blues Room","none","2015-03-23","within a few hours",100,"Roma",41.9104727142959,12.4508116046312,"Bed & Breakfast","Private room",3,1,1,3,"Real Bed","TV,Cable TV,Internet,Wireless Internet,Air conditioning,Kitchen,Pets allowed,Doorman,Breakfast,Elevator in building,Buzzer/wireless intercom,Heating,First aid kit,Safety card,Fire extinguisher,Essentials,Shampoo,translation missing: en.hosting_amenity_49,translation missing: en.hosting_amenity_50",105,NA,NA,1,0,NA,NA,NA,NA,NA,NA,NA,"moderate_new","Host Has Profile Pic,Host Identity Verified,Is Location Exact"
17706112,"Elegant Trevi Fountain Suite","none","2013-11-23","within an hour",99,"Roma",41.9020523997651,12.4838302516939,"Apartment","Entire home/apt",2,1,0,1,"Real Bed","TV,Wireless Internet,Air conditioning,Kitchen,Heating,Essentials",90,NA,30,3,2,90,10,10,8,8,10,10,"strict_new","Host Has Profile Pic,Host Identity Verified,Is Location Exact,Instant Bookable"
17706580,"Santa Maria Maggiore - Monti - Room","none","2013-08-27","within an hour",100,"Roma",41.896342936702,12.5025359793915,"Bed & Breakfast","Private room",2,1,1,1,"Real Bed","TV,Wireless Internet,Air conditioning,Smoking allowed,Pets allowed,Breakfast,Elevator in building,Heating,Family/kid friendly,First aid kit,Fire extinguisher,Essentials,Shampoo,Lock on bedroom door,Hangers,Hair dryer,Laptop friendly workspace",89,NA,25,1,3,80,8,10,8,8,10,8,"moderate_new","Host Has Profile Pic,Is Location Exact,Instant Bookable"
12070382,"Lovely Double Room - Vatican Area!","none","2015-05-26","within an hour",100,"Roma",41.9129389200569,12.4558741203883,"Apartment","Private room",2,1,1,1,"Real Bed","TV,Internet,Wireless Internet,Air conditioning,Elevator in building,Buzzer/wireless intercom,Heating,Family/kid friendly,Essentials,Shampoo,Hangers,Hair dryer,Iron",88,NA,NA,1,3,100,10,10,10,10,9,10,"moderate_new","Host Has Profile Pic,Is Location Exact,Instant Bookable"
17827638,"COLOSSEUM TERRACE LUXURY APARTMENT - 6 PEOPLE","none","2015-06-13","within a few hours",96,"Roma",41.8868542867342,12.5009970750591,"Apartment","Entire home/apt",6,3,3,3,"Real Bed","TV,Wireless Internet,Air conditioning,Kitchen,Elevator in building,Heating,Smoke detector,Carbon monoxide detector,First aid kit,Safety card,Fire extinguisher,Essentials,Shampoo,Lock on bedroom door,Hangers,Hair dryer,Iron,Laptop friendly workspace,translation missing: en.hosting_amenity_49,Private entrance",161,NA,60,1,0,NA,NA,NA,NA,NA,NA,NA,"flexible_new","Host Is Superhost,Host Has Profile Pic,Host Identity Verified,Is Location Exact"
3745850,"Heart of cityVatican St. Peter Charm and terrace.","none","2014-07-23","within an hour",100,"Roma",41.9032552200769,12.4604128195234,"Apartment","Entire home/apt",5,2,2,3,"Real Bed","TV,Internet,Wireless Internet,Air conditioning,Kitchen,Hot tub,Indoor fireplace,Buzzer/wireless intercom,Heating,Family/kid friendly,Washer,Dryer,Smoke detector,Carbon monoxide detector,First aid kit,Safety card,Fire extinguisher,Essentials,Shampoo,24-hour check-in,Hangers,Hair dryer,Iron,Laptop friendly workspace,Self Check-In,Doorman Entry,Bathtub",172,NA,50,3,71,98,10,10,10,10,10,10,"moderate_new","Host Is Superhost,Host Has Profile Pic,Host Identity Verified,Is Location Exact,Instant Bookable"
15477329,"Little Colosseum","none","2013-06-06","within an hour",100,"Roma",41.889436189496,12.4953359229492,"Apartment","Entire home/apt",2,1,1,1,"Real Bed","TV,Wireless Internet,Air conditioning,Kitchen,Heating,Family/kid friendly,First aid kit,Fire extinguisher,Essentials,Shampoo,Hangers,Hair dryer,Iron,Laptop friendly workspace,Crib",90,NA,30,2,6,87,10,10,9,9,10,10,"strict_new","Host Has Profile Pic,Host Identity Verified,Is Location Exact,Instant Bookable"
10429864,"Charming old town","none","2012-06-07","within an hour",99,"Roma",41.8953061107953,12.4740895786837,"Apartment","Entire home/apt",4,1,1,1,"Pull-out Sofa","TV,Wireless Internet,Kitchen,Indoor fireplace,Heating,Family/kid friendly,Washer,Shampoo,Hair dryer,Laptop friendly workspace,translation missing: en.hosting_amenity_50",89,100,30,3,27,90,9,9,9,9,10,9,"strict_new","Host Has Profile Pic,Host Identity Verified,Is Location Exact,Instant Bookable"
3531016,"SAN PIETRO - VIOLET HOLIDAY'S HOUSE","none","2014-07-07","within a few hours",100,"Roma",41.9062330200568,12.4465172674334,"Apartment","Entire home/apt",7,3,3,7,"Real Bed","TV,Cable TV,Internet,Wireless Internet,Air conditioning,Wheelchair accessible,Kitchen,Smoking allowed,Elevator in building,Heating,Family/kid friendly,Washer,First aid kit,Fire extinguisher,Essentials,Hangers,Hair dryer,Iron",50,100,50,3,14,76,9,8,8,8,8,8,"strict_new","Host Has Profile Pic,Host Identity Verified,Instant Bookable"
14121684,"Navona Luxury Guesthouse - Room 101 Michelangelo","none","2016-07-21","within an hour",100,"Roma",41.8982189258366,12.4690602356208,"Bed & Breakfast","Private room",4,1,1,2,"Real Bed","TV,Cable TV,Internet,Wireless Internet,Air conditioning,Doorman,Breakfast,Elevator in building,Indoor fireplace,Heating,Family/kid friendly,Smoke detector,Safety card,Fire extinguisher,Essentials,Shampoo,Lock on bedroom door,Hangers,Hair dryer,Laptop friendly workspace",105,NA,NA,1,1,100,10,10,10,10,10,10,"moderate_new","Host Has Profile Pic,Host Identity Verified,Is Location Exact,Instant Bookable"
6283468,"RESIDENZA CASANO","none","2015-04-10","within a day",71,"Roma",41.906036723129,12.4810545600408,"House","Private room",2,1,1,2,"Real Bed","TV,Cable TV,Internet,Wireless Internet,Breakfast,Heating,Washer,Fire extinguisher,Shampoo",730,NA,NA,2,0,NA,NA,NA,NA,NA,NA,NA,"strict_new","Host Has Profile Pic,Host Identity Verified,Is Location Exact"
11331046,"Fantastica vistas a la Cùpola .","none","2014-04-18","within an hour",100,"Roma",41.9026336440668,12.4621475659027,"House","Entire home/apt",4,1,2,2,"Real Bed","TV,Internet,Air conditioning,Kitchen,Smoking allowed,Heating,Family/kid friendly,First aid kit,Essentials,Shampoo,Hangers,Hair dryer,Iron",70,150,40,1,1,100,NA,NA,NA,NA,NA,NA,"flexible_new","Host Has Profile Pic,Host Identity Verified,Is Location Exact"
15291771,"House Lungaretta","none","2014-10-10","within an hour",100,"Roma",41.8902193253731,12.4717702995349,"Apartment","Entire home/apt",4,1,1,2,"Real Bed","TV,Internet,Wireless Internet,Air conditioning,Kitchen,Elevator in building,Indoor fireplace,Heating,Family/kid friendly,Suitable for events,Washer,Safety card,Essentials,Shampoo,Hangers,Hair dryer,Iron,Laptop friendly workspace",91,200,50,3,4,93,10,9,9,9,10,9,"strict_new","Host Has Profile Pic,Host Identity Verified,Instant Bookable"
9101046,"Crystal Luxury Suite","none","2015-10-09","within a few hours",80,"Roma",41.9005453231269,12.4939802673154,"Apartment","Private room",2,1,1,2,"Real Bed","TV,Internet,Air conditioning,Breakfast,Heating,Family/kid friendly,Essentials,Shampoo,Hangers,Hair dryer",85,NA,NA,1,3,80,8,10,10,10,10,10,"flexible_new","Host Has Profile Pic,Is Location Exact"
7069336,"Perfect Navona Suite Terrace AC","none","2011-11-28","within an hour",100,"Roma",41.8978893684305,12.4711887088852,"Apartment","Entire home/apt",3,1,1,1,"Real Bed","TV,Cable TV,Internet,Wireless Internet,Air conditioning,Kitchen,Heating,Family/kid friendly,Washer,Dryer,Essentials,Shampoo,Hangers,Hair dryer,Iron,Laptop friendly workspace,Private entrance",107,500,100,4,4,90,8,10,9,10,10,9,"super_strict_60_new","Host Has Profile Pic,Host Identity Verified"
18144788,"Ra.Re House","none","2016-10-19","within a few hours",100,"Roma",41.9066643549553,12.4958264944042,"Serviced apartment","Private room",2,1,1,2,"Real Bed","TV,Cable TV,Internet,Wireless Internet,Air conditioning,Doorman,Elevator in building,Heating,Family/kid friendly,Essentials,Shampoo,Hangers,Hair dryer,Iron,Laptop friendly workspace",95,NA,NA,1,0,NA,NA,NA,NA,NA,NA,NA,"flexible_new","Host Has Profile Pic"
5055731,"In the heart of the eternal city!","none","2012-11-08","within an hour",100,"Roma",41.8964249681557,12.4694603827442,"Apartment","Entire home/apt",4,1,2,2,"Real Bed","TV,Cable TV,Internet,Wireless Internet,Air conditioning,Kitchen,Pets allowed,Buzzer/wireless intercom,Heating,Family/kid friendly,Washer,Smoke detector,Carbon monoxide detector,First aid kit,Essentials,Shampoo,24-hour check-in,Hangers,Hair dryer,Iron,Laptop friendly workspace",89,200,60,2,27,93,9,10,10,10,10,9,"strict_new","Host Has Profile Pic,Host Identity Verified,Instant Bookable"
6610145,"Roma Tosca's House Room 1","none","2015-05-29","within an hour",100,"Roma",41.9102233593806,12.4965531983069,"Apartment","Private room",2,1,1,1,"Real Bed","Wireless Internet,Air conditioning,Smoking allowed,Elevator in building,Buzzer/wireless intercom,Heating,Family/kid friendly,First aid kit,Fire extinguisher,Essentials,Shampoo,Hair dryer,Iron,translation missing: en.hosting_amenity_50",37,NA,NA,2,128,90,9,9,10,10,9,9,"flexible_new","Host Has Profile Pic,Host Identity Verified,Is Location Exact,Instant Bookable"
15137323,"Prince's Suite Piazza del Popolo 2","none","2014-07-01","within an hour",87,"Roma",41.9098242253184,12.4765012378029,"Apartment","Entire home/apt",4,1,1,2,"Real Bed","TV,Wireless Internet,Air conditioning,Kitchen,Pets allowed,Heating,Family/kid friendly,Washer,Dryer,Smoke detector,Carbon monoxide detector,First aid kit,Safety card,Fire extinguisher,Essentials,Shampoo,Lock on bedroom door,Hangers,Hair dryer,Laptop friendly workspace",109,NA,50,1,3,60,6,9,5,5,7,6,"strict_new","Host Has Profile Pic,Host Identity Verified,Is Location Exact,Instant Bookable"
12647076,"Room Emma - Grandis Rooms Roma","none","2015-07-10","within an hour",100,"Roma",41.8883434150065,12.5144034509835,"Apartment","Private room",2,1,1,1,"Real Bed","TV,Wireless Internet,Air conditioning,Doorman,Elevator in building,Heating,Family/kid friendly,Fire extinguisher,Essentials,Shampoo,Lock on bedroom door,Hair dryer,translation missing: en.hosting_amenity_50",36,NA,NA,1,2,90,7,9,9,10,10,7,"moderate_new","Host Has Profile Pic,Host Identity Verified,Is Location Exact"
13098960,"Vatican Apartment","none","2014-12-02","",NA,"Roma",41.9085176928987,12.454637038288,"Apartment","Entire home/apt",4,1,1,1,"Real Bed","TV,Cable TV,Internet,Wireless Internet,Kitchen,Smoking allowed,Elevator in building,Buzzer/wireless intercom,Heating,Family/kid friendly,Washer,Essentials,Hangers,Hair dryer,Iron,Laptop friendly workspace",90,90,15,2,17,88,10,8,10,10,10,10,"moderate_new","Host Has Profile Pic,Host Identity Verified"
8904617,"NEW IN TRASTEVERE!!! 5 PAX WIFI","none","2011-11-02","within an hour",99,"Roma",41.8854079239768,12.4701976037868,"Apartment","Entire home/apt",5,2,1,3,"Real Bed","TV,Wireless Internet,Air conditioning,Kitchen,Buzzer/wireless intercom,Heating,Family/kid friendly,Essentials",120,NA,15,2,20,84,10,9,9,8,9,9,"moderate_new","Host Has Profile Pic,Is Location Exact"
